id,name,latitude,longitude,altitude_m,source_type,department
02022001,ARCY-STE-RESTIT,49.263333,3.505,104,real,02
02031001,AUBENTON,49.834,4.2005,177,real,02
02035001,AUDIGNY,49.866667,3.65,150,real,02
02037002,AULNOIS-SS-LAON,49.595667,3.610333,78,real,02
02058001,BEAURIEUX,49.390333,3.732667,56,real,02
02086001,BICHANCOURT,49.579333,3.210833,59,real,02
02094001,BLESMES,49.009667,3.462667,222,real,02
02095001,BOHAIN-EN-VERMA,49.983333,3.45,135,real,02
02100001,BONY,50.003167,3.2245,94,real,02
02109001,LA BOUTEILLE,49.891667,3.968333,133,real,02
02110001,BRAINE - MAN,49.344167,3.5275,53,real,02
02110002,BRAINE,49.351333,3.527,61,real,02
02114001,BRASLES,49.048667,3.421167,64,real,02
02135001,BUIRONFOSSE,49.961667,3.838333,208,real,02
02153001,CESSIERES,49.553333,3.498333,107,real,02
02163001,CHARLY,48.983333,3.3,64,real,02
02173002,CHAUNY,49.633833,3.197833,83,real,02
02182001,CHEVENNES,49.816667,3.733333,125,real,02
02197001,CLAIRFONTAINE,49.966667,3.966667,225,real,02
02199001,CLASTRES,49.742833,3.2285,75,real,02
02219001,COUCY-LA-VILLE,49.550667,3.361167,171,real,02
02220001,COULONGES-COHAN,49.214167,3.605833,168,real,02
02239001,CREZANCY,49.05,3.5,125,real,02
02258001,DAMMARD,49.146333,3.197333,146,real,02
02278001,EPARCY,49.875,4.0595,161,real,02
02298001,ETREUX,49.987833,3.646833,120,real,02
02301002,FAUCOUCOURT,49.527333,3.462167,100,real,02
02320001,ST QUENTIN,49.818333,3.206,98,real,02
02321001,FONTAINE-VV MAN,49.836333,3.8795,184,real,02
02321002,FONTAINE-LES-VV,49.837333,3.877833,186,real,02
02346001,GIZY,49.599833,3.781,75,real,02
02361002,GUISE,49.902833,3.620833,95,real,02
02381001,HIRSON,49.922,4.077167,165,real,02
02408002,LAON,49.57,3.596667,82,real,02
02433001,LISLET,49.685833,4.0235,114,real,02
02471001,MARTIGNY-COURPI,49.485667,3.693167,95,real,02
02475001,MENNEVILLE,49.419833,4.0055,59,real,02
02502001,MONTCORNET,49.69,4.0215,130,real,02
02505001,MONTFAUCON,48.973333,3.441,217,real,02
02558001,NOUVION-EN-T,50.007833,3.7765,182,real,02
02575001,ORIGNY-STE-BENO,49.839167,3.481,75,real,02
02577001,OSTEL,49.434167,3.550833,162,real,02
02580001,OULCHY-LE-CHATE,49.208667,3.417,122,real,02
02585001,PARCY-ET-TIGNY,49.280167,3.331,148,real,02
02594001,PASSY EN VALOIS,49.165167,3.199667,141,real,02
02614001,PONTRU,49.9075,3.203,80,real,02
02617001,POUILLY-SUR-SERRE,49.683833,3.597333,68,real,02
02626001,PROUVAIS,49.463333,3.970667,105,real,02
02643001,RESSONS-LE-LONG,49.395833,3.1865,40,real,02
02643002,RESSONS LE LONG,49.3835,3.147667,133,real,02
02652001,ROGNY,49.766667,3.815667,115,real,02
02674001,ST-CLEMENT,49.773167,4.071667,201,real,02
02705001,NIZY-LE-COMTE,49.566,4.0365,90,real,02
02722002,SOISSONS,49.390667,3.310667,40,real,02
02732001,SURFONTAINE,49.75,3.466667,119,real,02
02734001,TAILLEFONTAINE,49.312667,3.044,140,real,02
02738001,TERGNIER,49.663833,3.320667,59,real,02
02758001,VAILLY-SUR-AISN,49.412167,3.519333,65,real,02
02802001,VILLE-AUX-BOIS,49.659667,3.995167,143,real,02
02814001,VILLERS-LES-G,49.9215,3.673833,154,real,02
04001002,AIGLUN,44.071667,6.136667,655,real,04
04006002,LA FOUX,44.241667,6.625,1817,real,04
04006004,ALLOS,44.226667,6.631667,1370,real,04
04006005,ALLOS_SAPC,44.2425,6.625333,1400,real,04
04006400,LA FOUX D ALLOS_NIVO,44.289833,6.561667,1900,real,04
04018001,BANON,44.038333,5.63,780,real,04
04019001,BARCELONNETTE,44.391167,6.670167,1155,real,04
04019404,PRA LOUP_NIVO,44.36,6.584667,2100,real,04
04022001,BARREME,43.957167,6.372333,743,real,04
04023001,BAYONS,44.342667,6.178667,886,real,04
04024001,BEAUJEU,44.234333,6.357833,1050,real,04
04024004,BEAUJEU ST PIERRE,44.209833,6.385167,960,real,04
04027002,BEVONS,44.167,5.861833,520,real,04
04033001,ROUSSET,44.468667,6.2685,675,real,04
04034003,LA BRILLANNE,43.9235,5.8865,385,real,04
04039001,CASTELLANE,43.849167,6.508,729,real,04
04041001,LE CASTELLET,43.938333,5.9795,473,real,04
04045001,CERESTE,43.850667,5.566,350,real,04
04049001,ST AUBAN,44.062167,5.989667,458,real,04
04051001,CHATEAUNEUF-MIRAVAIL,44.161833,5.726667,660,real,04
04068001,DAUPHIN,43.909833,5.767167,427,real,04
04070008,DIGNE,44.083333,6.225,585,real,04
04070009,DIGNE LES BAINS,44.07,6.186667,554,real,04
04076001,ENTREVAUX,43.950333,6.8165,475,real,04
04088001,FORCALQUIER,43.962833,5.784667,535,real,04
04088003,FORCALQUIER,43.933333,5.78,470,real,04
04096001,JAUSIERS,44.405,6.761667,1510,real,04
04096002,JAUSIERS-ST ANNE,44.413667,6.725167,1240,real,04
04096401,RESTEFOND-NIVOSE,44.34,6.8,2550,real,04
04099001,LAMBRUISSE,44.042833,6.4455,1123,real,04
04101001,LARDIERS,44.052333,5.7135,747,real,04
04106001,LURS,43.9445,5.866333,385,real,04
04112001,MANOSQUE,43.843333,5.785,380,real,04
04112006,MANOSQUE,43.797,5.817167,289,real,04
04112009,MANOSQUE,43.8355,5.793333,457,real,04
04112010,MANOSQUE-PIMARLET,43.837167,5.801,375,real,04
04115001,MEAILLES_SAPC,44.031167,6.6295,1090,real,04
04123001,MISON,44.241667,5.888333,560,real,04
04126001,MONTCLAR_SAPC,44.391833,6.333333,1197,real,04
04134002,LA MOTTE DU CAIRE,44.326667,6.0305,665,real,04
04134003,LA MOTTE,44.356333,6.0355,750,real,04
04136001,LA MURE-ARGENS,43.977,6.520167,920,real,04
04158001,QUINSON,43.701,6.0385,380,real,04
04158002,QUINSON,43.7075,6.039833,400,real,04
04160001,REILLANNE,43.87,5.663333,455,real,04
04172001,ROUMOULES,43.7935,6.150833,665,real,04
04173002,ST ANDRE ALPES,43.958333,6.511667,882,real,04
04184001,ST JURS,43.900833,6.2005,867,real,04
04189001,ST-MARTIN,43.763333,5.94,392,real,04
04192001,ST MICHEL L OBS,43.933333,5.713333,650,real,04
04193002,ST PAUL,44.593,6.843333,1908,real,04
04193400,MALJASSET_NIVO,44.593,6.843333,1908,real,04
04194001,LA PENNE,43.906667,6.9345,683,real,04
04205001,SEYNE,44.3515,6.3645,1210,real,04
04205004,SEYNE-COL MAURE,44.320333,6.400167,1347,real,04
04209004,SISTERON-CHAUMI,44.215,5.941667,485,real,04
04209005,SISTERON,44.2245,5.916,500,real,04
04217001,THOARD,44.16,6.138333,785,real,04
04217002,THOARD,44.146833,6.138833,732,real,04
04219001,THORAME HAUTE,44.091667,6.557333,1155,real,04
04222001,TURRIERS,44.399,6.1695,1020,real,04
04226001,UVERNET FOURS,44.319167,6.693,1660,real,04
04230001,VALENSOLE,43.8395,6.000833,600,real,04
04230002,VALENSOLE,43.843333,5.986667,545,real,04
06004002,ANTIBES-GAROUPE,43.564667,7.133,75,real,06
06004004,ANTIBES-GOLF,43.579667,7.091167,13,real,06
06004005,ANTIBES-OBS,43.6,7.116667,30,real,06
06004009,ANTIBES_SAPC,43.599167,7.111167,32,real,06
06004012,ANTIBES PORT,43.585333,7.127167,3,real,06
06005001,ASCROS,43.922,7.013667,1173,real,06
06006001,ASPREMONT,43.754667,7.247667,380,real,06
06010001,BAR-SUR-LOUP,43.7,6.983333,330,real,06
06015001,BERRE-DES-ALPES,43.838333,7.321667,715,real,06
06015002,BERRE LES ALPES-COLLA DONNA,43.824333,7.338167,500,real,06
06016001,BEUIL-OBS,44.089833,6.988,1464,real,06
06016004,BEUIL,44.089,6.989333,1368,real,06
06022002,BOUYON,43.823,7.118167,723,real,06
06023004,BREIL SUR ROYA,43.940167,7.513667,305,real,06
06029001,CANNES,43.5565,6.9505,2,real,06
06033001,CARROS-OBS,43.766667,7.2,63,real,06
06033002,CARROS_SAPC,43.786667,7.209167,78,real,06
06037002,CAUSSOLS,43.752333,6.923167,1268,real,06
06038001,CHATEAUNEUF GRASSE,43.678333,6.996167,379,real,06
06044002,COLLE SUR LOUP,43.691667,7.1,165,real,06
06048001,CONTES-OBS,43.8045,7.317167,190,real,06
06048003,CONTES,43.8,7.316667,200,real,06
06050002,COURSEGOULES_SAPC,43.792,7.0485,985,real,06
06051001,LA CROIX SUR ROUDOULE_SAPC,43.987667,6.873333,860,real,06
06052001,CUEBRIS,43.888,7.015667,562,real,06
06056003,ENTRAUNES-ESTENC,44.255833,6.753,1850,real,06
06056400,ESTENC_NIVO,44.239167,6.753,1850,real,06
06057001,L ESCARENE,43.838,7.355,380,real,06
06059001,EZE-OBS,43.726,7.355,388,real,06
06059003,EZE,43.738833,7.365833,704,real,06
06069008,GRASSE,43.653667,6.9395,183,real,06
06071001,GUILLAUMES-OBS,44.090667,6.852333,788,real,06
06071003,GUILLAUMES,44.1,6.85,780,real,06
06073005,ISOLA 2000,44.1895,7.149,1912,real,06
06073405,ISOLA_NIVO,44.1895,7.149,1912,real,06
06074001,LANTOSQUE-OBS,43.966667,7.316667,550,real,06
06074005,LANTOSQUE_SAPC,43.972,7.307,550,real,06
06075001,LEVENS-OBS,43.866667,7.216667,565,real,06
06075006,LEVENS_RESERVOIRS,43.861667,7.236667,668,real,06
06075007,LEVENS,43.846333,7.21,691,real,06
06077006,PEIRA CAVA,43.929167,7.363333,1443,real,06
06079002,MANDELIEU LA NAPOULE_SAPC,43.523667,6.898667,104,real,06
06081001,LE MAS,43.813667,6.809333,1525,real,06
06083001,MENTON-OBS,43.784833,7.528833,12,real,06
06083005,MENTON,43.785833,7.488667,216,real,06
06083006,MENTON-PORT,43.784,7.519333,19,real,06
06084002,MOUANS SARTOUX,43.611833,6.951167,165,real,06
06086001,MOULINET,43.942,7.414667,817,real,06
06088001,NICE,43.648833,7.209,2,real,06
06088003,NICE-COL,43.710333,7.301333,199,real,06
06088005,NICE-FERIC,43.7175,7.2345,197,real,06
06088007,NICE-RIMIEZ,43.738667,7.279167,238,real,06
06088009,NICE-ST ROMAN,43.751667,7.216667,323,real,06
06090002,PEGOMAS,43.602667,6.936667,109,real,06
06091003,PEILLE,43.775167,7.428333,1106,real,06
06091005,PEILLE-FONTBONNE,43.764167,7.425,793,real,06
06091006,PEILLE COL DE LA MADONE,43.796,7.414667,848,real,06
06092001,PEILLON,43.766333,7.356167,142,real,06
06094001,PEONE-VALBERG,44.1,6.933333,1659,real,06
06094002,PEONE,44.099667,6.930833,1784,real,06
06094400,VALBERG_NIVO,44.087,6.941333,1630,real,06
06099004,PUGET THENIERS_SAPC,43.956833,6.892333,449,real,06
06102001,RIMPLAS_SAPC,44.067167,7.1335,1130,real,06
06103002,BERTHEMONT-LES-BAINS_SAPC,44.044333,7.300833,938,real,06
06106002,ROQUESTERON,43.876333,7.006167,405,real,06
06116002,ST AUBAN,43.847,6.727,1048,real,06
06118001,ST CEZAIRE,43.645167,6.797667,474,real,06
06118002,ST CEZAIRE SUR SIAGNE,43.678667,6.809,694,real,06
06119001,ST-DALMAS-LE-SE,44.283333,6.85,1500,real,06
06120001,TINEE-AURON,44.222667,6.937333,1605,real,06
06120004,ST ETIENNE DE TINEE_SAPC,44.257667,6.921167,1150,real,06
06120400,AURON_NIVO,44.215333,6.9135,1910,real,06
06120401,AURON -S-,44.207833,6.928667,2099,real,06
06121001,CAP FERRAT,43.683333,7.328333,138,real,06
06125001,ST MARTIN D'ENTRAUNES_SAPC,44.154667,6.747,1642,real,06
06127001,ST-MARTIN-DE-VESUBIE-OBS,44.074167,7.254167,994,real,06
06127003,ST MARTIN VESUBIE,44.073667,7.258167,1044,real,06
06127006,SAINT MARTIN VESUBIE_SAPC,44.065667,7.255,899,real,06
06129001,ST-SAUVEUR-SUR-TINEE,44.084,7.102333,487,real,06
06130001,ST-VALLIER-OBS,43.716667,6.833333,715,real,06
06130002,ST VALLIER,43.691333,6.843,708,real,06
06135001,SIGALE,43.874,6.968667,629,real,06
06136003,SOSPEL,43.883333,7.45,360,real,06
06136004,SOSPEL-COLLETTA,43.866667,7.433333,540,real,06
06136005,SOSPEL,43.862833,7.433667,843,real,06
06148001,TOURRETTES SUR LOUP,43.708167,7.055833,311,real,06
06149001,LA TRINITE,43.7275,7.301,341,real,06
06150001,LA TURBIE,43.741667,7.400167,495,real,06
06152002,VALBONNE-SOPHIA,43.623167,7.0285,238,real,06
06153001,VALDEBLORE-OBS,44.066667,7.166667,1000,real,06
06153004,VALDEBLORE,44.069,7.1695,1058,real,06
06153400,MILLEFONTS-NIVOSE,44.118333,7.192,2430,real,06
06154002,VALDEROURE,43.792333,6.7345,1105,real,06
06157002,VENCE,43.716667,7.116667,321,real,06
06158001,VILLARS-SUR-VAR,43.9345,7.088667,380,real,06
06163001,TENDE-OBS,44.086667,7.595,792,real,06
06163005,TENDE-CASTERINO,44.091833,7.5035,1554,real,06
06163007,TENDE_SAPC,44.043167,7.586,636,real,06
07005001,ALBA LA ROMAINE,44.539833,4.5825,223,real,07
07005002,ALBA SA,44.538833,4.582833,223,real,07
07010001,ANNONAY,45.246167,4.6705,336,real,07
07011002,ANTRAIGUES,44.719167,4.352167,428,real,07
07011004,ANTRAIGUES SA,44.712167,4.352167,600,real,07
07012001,ARCENS,44.891333,4.307167,662,real,07
07019005,AUBENAS SA,44.601667,4.409833,176,real,07
07025001,BARNAS RAD,44.666,4.159833,480,real,07
07026001,BEAGE,44.848333,4.123333,1225,real,07
07032002,BERZEME RAD,44.628333,4.566333,650,real,07
07032003,BERZEME SA,44.6285,4.5665,760,real,07
07033001,BESSAS,44.34,4.298667,251,real,07
07042001,BOURG ST ANDEOL,44.372333,4.6415,74,real,07
07064001,CHEYLARD SA,44.914833,4.4375,418,real,07
07066001,CHOMERAC SA_RCE,44.6995,4.648333,216,real,07
07066800,CHOMERAC SA_DOUBLE,44.697667,4.649167,212,real,07
07068001,COLOMBIER JEUNE RAD,45.0155,4.671167,566,real,07
07069001,COLOMBIER VIEUX SA,45.063667,4.698,408,real,07
07075001,CROS GEORAND,44.780167,4.099667,1021,real,07
07088001,FAUGERES,44.474667,4.136167,430,real,07
07096001,GLUIRAS RAD,44.839333,4.524,760,real,07
07099001,GRAS,44.429,4.5655,341,real,07
07101001,GROSPIERRES,44.411333,4.300833,127,real,07
07101002,GROSPIERRES SA,44.4115,4.295833,107,real,07
07105001,ISSANLAS,44.773167,3.981667,1215,real,07
07105003,ISSANLAS_SAPC,44.7555,3.975333,1264,real,07
07107001,JAUJAC,44.632833,4.222167,550,real,07
07110001,JOYEUSE,44.477667,4.230833,212,real,07
07117001,LABLACHERE DROME,44.461333,4.234833,265,real,07
07117002,LABLACHERE,44.480833,4.208333,295,real,07
07119001,LAC ISSARLES,44.822,4.0775,1056,real,07
07128001,LALOUVESC,45.117833,4.535,1090,real,07
07129001,LAMASTRE,44.990667,4.5895,367,real,07
07131001,LANAS SYN,44.537167,4.368167,265,real,07
07144001,LOUBARESSE,44.599833,4.049333,1200,real,07
07148002,SENECHAS,44.319333,4.05,291,real,07
07153001,MAYRES,44.667167,4.113,579,real,07
07154003,MAZAN  S.A.,44.743333,4.128333,1185,real,07
07154005,MAZAN ABBAYE RAD,44.733833,4.083833,1240,real,07
07159001,MIRABEL SA,44.5815,4.497333,275,real,07
07161001,MONTPEZAT SA,44.715667,4.207,602,real,07
07161002,MONTPEZAT,44.703333,4.229667,491,real,07
07168001,ORGNAC AVEN,44.288333,4.421667,230,real,07
07172002,PEAUGRES RAD,45.286167,4.705833,480,real,07
07173001,PEREYRES,44.789,4.255333,952,real,07
07185001,PREAUX SA,45.14,4.665,525,real,07
07186001,PRIVAS,44.718833,4.596333,282,real,07
07187001,CROIX MILLET,44.606333,4.241333,779,real,07
07192001,ROCHEPAULE SA,45.081667,4.453333,1055,real,07
07199002,ROSIERES,44.4955,4.2525,226,real,07
07202002,SABLIERES OARA,44.533,4.0725,540,real,07
07204005,ST-AGREVE,45.012167,4.401,1072,real,07
07204008,ST-AGREVE RAD,44.997833,4.368,1014,real,07
07225001,ST-CLAIR S.A.,45.27,4.681667,420,real,07
07228001,ST-DESIRAT SA,45.260333,4.783667,275,real,07
07230002,ESCRINET SA,44.715333,4.4905,737,real,07
07232001,ST-ETIENNE LUGDARES,44.651333,3.9485,1022,real,07
07237001,ST-FORTUNAT,44.816667,4.661667,205,real,07
07240001,ST-GEORGES BAIN,44.860333,4.8325,112,real,07
07261001,ST-LAURENT PAPE,44.817833,4.746833,112,real,07
07262001,ST-LAURENT BAIN,44.576833,3.936167,803,real,07
07262006,ST LAURENT BAINS,44.584333,3.948667,912,real,07
07265001,ST-MARCEL ANNONAY,45.296,4.642,494,real,07
07265003,ST MARCEL ANNONAY- LES FILTRES,45.286167,4.637833,445,real,07
07273001,ST-MAURICE IBIE,44.501333,4.481333,238,real,07
07279001,ST-MONTAN,44.441833,4.636333,130,real,07
07284002,ST-PIERRE-ST-JEAN,44.449333,4.1165,315,real,07
07286002,ST-PIERREVILLE,44.814333,4.485,560,real,07
07286004,ST PVILLE S.A.,44.82,4.488333,640,real,07
07294001,ST-SAUVEUR SA,44.296,4.26,149,real,07
07301002,ST-VICTOR,45.110167,4.682333,557,real,07
07315004,LA SOUCHE,44.6285,4.123667,924,real,07
07322001,THUEYTS,44.673333,4.238333,420,real,07
07324003,TOURNON,45.05,4.841667,118,real,07
07329001,VALGORGE,44.586833,4.129833,546,real,07
07330004,VALLON SA,44.391833,4.403667,120,real,07
07331001,VALS-LES-BAINS,44.6695,4.360667,283,real,07
07334001,LES VANS,44.409167,4.127333,215,real,07
07334003,LES VANS SA,44.411667,4.118,275,real,07
07334004,LES VANS-SA,44.4155,4.150833,140,real,07
07338001,VERNOUX,44.8995,4.652333,561,real,07
07338005,VERNOUX SA,44.893333,4.626667,510,real,07
07347001,VOCANCE,45.201167,4.554333,529,real,07
10002001,AILLEVILLE_SAPC,48.254167,4.685667,195,real,10
10010002,ARREMBECOURT,48.538333,4.606667,134,real,10
10021001,AVANT-LES-RAMERUPT,48.451333,4.283667,118,real,10
10030001,TROYES-BARBEREY,48.324667,4.02,112,real,10
10034001,BAR-SUR-SEINE,48.120833,4.371667,150,real,10
10042001,BERULLE,48.179,3.663333,146,real,10
10057001,BOUY-SUR-ORVIN,48.439833,3.504833,102,real,10
10059001,BRAUX,48.489,4.4755,120,real,10
10060001,BREVIANDES,48.263333,4.09,115,real,10
10070001,CELLES-SUR-OURCE,48.0675,4.411333,275,real,10
10075001,CHAMPFLEURY,48.619667,4.050833,118,real,10
10079002,CHANNES,47.940333,4.251,302,real,10
10099002,CHESSY-LES-PRES_SAPC,48.0255,3.915,119,real,10
10102001,COLOMBE-LA-FOSSE-CIVC,48.261667,4.779667,252,real,10
10119001,CUNFIN_SAPC,48.0365,4.6785,315,real,10
10120001,CUSSANGY,48.019667,4.105667,220,real,10
10130001,DOSNON,48.609167,4.224667,115,real,10
10141001,ESSOYES-CIVC,48.039167,4.493833,280,real,10
10166002,GRANDES-CHAPELL,48.468167,4.016833,111,real,10
10202001,LOGES-MARGUERON,48.082833,4.098667,150,real,10
10203002,LONGCHAMP-SUR-A,48.149667,4.831333,202,real,10
10221001,MAIZIERES-LES-B,48.434333,4.587,123,real,10
10223001,MARCILLY-LE-HAY,48.346167,3.636,128,real,10
10228001,MATHAUX,48.365,4.473333,132,real,10
10228002,MATHAUX-ETAPE,48.353167,4.472333,145,real,10
10233002,MERY-SUR-SEINE,48.505,3.886667,81,real,10
10238001,MESNIL-ST-PERE,48.244833,4.322167,142,real,10
10240002,MESSON,48.266333,3.905167,158,real,10
10241001,METZ-ROBERT_SAPC,48.0745,4.101167,140,real,10
10255002,MONTREUIL,48.217333,4.275833,150,real,10
10261001,MUSSY-SUR-SEINE,47.983833,4.495833,193,real,10
10274001,ORVILLIERS-ST-J,48.445,3.8365,101,real,10
10287003,PINEY,48.363,4.3215,117,real,10
10291001,PLESSIS-BARBUIS,48.5775,3.586,95,real,10
10317001,LES-RICEYS,47.997167,4.372,185,real,10
10317002,LES-RICEYS-CIVC,47.981333,4.3305,274,real,10
10323001,ROMILLY,48.503333,3.7495,77,real,10
10327001,ROTHIERE(LA),48.344333,4.557833,136,real,10
10334001,ST-AUBIN,48.486167,3.538833,78,real,10
10339001,ST-FLAVY,48.401667,3.763333,114,real,10
10350001,ST-MARDS,48.169833,3.789,227,real,10
10360001,ST-POUANGE,48.238833,4.049833,122,real,10
10369001,SEMOINE,48.677167,4.096167,137,real,10
10372001,SOULAINES,48.399333,4.671333,138,real,10
10391001,VAILLY,48.372333,4.125833,152,real,10
10401001,VENDEUVRE-SUR-B,48.233,4.463,180,real,10
10419001,VILLEMOYENNE,48.1785,4.233833,134,real,10
10428002,VILLE-SUR-TERRE,48.331833,4.7495,202,real,10
10429001,VILLETTE-SUR-AU,48.532833,4.119667,98,real,10
10432001,VILLIERS-SOUS-P,48.063667,4.253333,237,real,10
10438001,VITRY-LE-CROISE-CIVC,48.144333,4.554167,237,real,10
10442001,VOUE,48.467833,4.181833,170,real,10
11004001,ALAIGNE,43.1125,2.098333,293,real,11
11012001,ARGELIERS,43.308167,2.911667,31,real,11
11013001,ARGENS-MINERVOIS,43.238333,2.768333,34,real,11
11015001,ARQUES,42.951833,2.374833,350,real,11
11016003,ARQUETTES-EN-VAL,43.100833,2.503333,240,real,11
11021002,AXAT-GARE,42.803333,2.23,415,real,11
11028001,BELCAIRE,42.8195,1.968,980,real,11
11033003,BELPECH,43.200333,1.748333,235,real,11
11041003,VILLESPASSANS,43.364167,2.880833,219,real,11
11044001,BOUISSE,42.986667,2.451667,640,real,11
11049001,BRAM,43.241667,2.126167,134,real,11
11056001,CABRESPINE,43.358333,2.463333,310,real,11
11068001,CAPENDU,43.187333,2.5505,79,real,11
11069001,CARCASSONNE,43.215333,2.2955,128,real,11
11075001,CASTANS,43.404667,2.494333,650,real,11
11076001,CASTELNAUDARY,43.305333,1.949167,160,real,11
11081003,CAUNES-MINERVOIS,43.334333,2.481,371,real,11
11099001,CONQUES-SUR-ORBIEL,43.279667,2.399167,120,real,11
11103001,COUIZA,42.943333,2.256667,222,real,11
11110001,COUSTOUGE,43.048333,2.743667,185,real,11
11113001,CUCUGNAN,42.848333,2.6,299,real,11
11115001,CUXAC-CABARDES,43.351167,2.272167,499,real,11
11124003,DURBAN-CORBIERES,42.993333,2.819167,120,real,11
11136001,FANJEAUX_SAPC,43.202,2.07,182,real,11
11140001,FERRALS-LES-CORBIERES,43.147167,2.7325,65,real,11
11144001,FITOU,42.894667,2.995833,9,real,11
11145002,FLEURY,43.232667,3.138167,19,real,11
11149001,FONTERS DU RAZE,43.23,1.936667,370,real,11
11155001,FOURTOU,42.927333,2.429833,643,real,11
11159002,RIBOUISSE,43.182833,1.895833,302,real,11
11168001,GRANES,42.909167,2.2505,420,real,11
11177001,JOUCOU,42.8265,2.0865,600,real,11
11179001,LABASTIDE EN VA,43.075,2.471667,206,real,11
11181002,LABECEDE LAURAGAIS_SAPC,43.3895,2.022167,408,real,11
11185001,LAGRASSE,43.0915,2.621833,130,real,11
11189001,LAPRADE,43.441667,2.260333,830,real,11
11198001,LAURE-MINERVOIS,43.268667,2.518167,80,real,11
11202001,LEUCATE,42.917333,3.059667,42,real,11
11203004,LEZIGNAN-CORBIERES,43.173,2.728833,60,real,11
11206003,LIMOUX,43.046,2.201167,230,real,11
11221004,LES MARTYS,43.4085,2.292333,760,real,11
11242001,MONTCLAR,43.135833,2.248,220,real,11
11243001,MONTFERRAND,43.3535,1.821667,190,real,11
11253001,MONTOLIEU,43.312667,2.2405,280,real,11
11260002,MOUTHOUMET,42.9595,2.529,538,real,11
11262002,NARBONNE-EGASSIAIRAL,43.179167,3.019167,5,real,11
11262005,NARBONNE,43.150333,2.955833,110,real,11
11266001,PORT-LA-NOUVELLE,43.0145,3.0525,0,real,11
11271001,PALAIRAC,42.957333,2.6615,364,real,11
11295001,PORTEL-DES-CORBIERES,43.041,2.9435,29,real,11
11296001,POUZOLS-MINERVO,43.288333,2.828333,80,real,11
11301001,PUICHERIC,43.226667,2.631667,57,real,11
11303001,PUIVERT,42.883333,2.045,610,real,11
11304001,QUILLAN,42.873333,2.181667,282,real,11
11321003,ROQUEFORT-DE-SAULT,42.745167,2.193,1017,real,11
11329001,ROUVENAC,42.938333,2.148333,310,real,11
11332001,ST ANDRE DE ROQ,43.111667,2.835,67,real,11
11333001,ST BENOIT,43.004,2.0455,601,real,11
11352001,ST LOUIS-ET-PARAHOU,42.850333,2.3405,684,real,11
11367001,SAISSAC,43.393333,2.165,630,real,11
11371001,SALLES-SUR-L'HERS,43.295333,1.783667,210,real,11
11388001,TERMES,43.000667,2.563167,330,real,11
11401001,TUCHAN,42.888333,2.723333,160,real,11
11404001,VENTENAC-CABARDES,43.264833,2.302333,123,real,11
11412001,VILLARDEBELLE_SAPC,43.014833,2.4005,593,real,11
11427001,VILLELONGUE-D'AUDE,43.053333,2.094167,320,real,11
13001002,AIX-PUYRICARD,43.593333,5.413333,314,real,13
13001006,AIX-LES MILLES,43.504667,5.365667,106,real,13
13001009,AIX EN PROVENCE,43.5295,5.4245,173,real,13
13004001,ARLES-VILLE,43.686667,4.611667,5,real,13
13004002,ARLES-SALIN,43.408333,4.72,1,real,13
13004003,ARLES,43.51,4.693833,1,real,13
13004008,ARLES-ROUSTY,43.623333,4.528333,5,real,13
13004017,ARLES-MAS-REY,43.693333,4.568333,10,real,13
13005003,AUBAGNE,43.307333,5.601167,130,real,13
13005004,AUBAGNE-DDE,43.291667,5.556667,105,real,13
13010001,BARBENTANE,43.916667,4.743333,15,real,13
13021001,CARRY-LE-ROUET,43.333333,5.151667,35,real,13
13022001,CASSIS-POMPIERS,43.218333,5.533333,67,real,13
13022003,CASSIS,43.222167,5.503167,212,real,13
13027001,CHATEAURENARD,43.883333,4.848333,30,real,13
13028001,BEC DE L AIGLE,43.174667,5.574167,316,real,13
13030001,CUGES-LES-PINS,43.274,5.700167,184,real,13
13030002,STE BAUME,43.3155,5.711333,1025,real,13
13031002,LA DESTROUSSE_SAPC,43.386667,5.601,201,real,13
13035002,EYGUIERES,43.726333,5.008,160,real,13
13036003,EYRAGUES,43.847167,4.834833,17,real,13
13037001,LA FARE LES OLIVIERS,43.548333,5.2,53,real,13
13042001,GEMENOS,43.288333,5.618333,130,real,13
13047001,ISTRES,43.522667,4.9275,23,real,13
13050001,LAMBESC,43.668667,5.2865,260,real,13
13053002,MALLEMORT,43.715,5.206667,128,real,13
13054001,MARIGNANE,43.437,5.2115,6,real,13
13055001,MARSEILLE-OBS,43.305667,5.394333,75,real,13
13055005,MARSEILLE-ST BARNABE,43.309333,5.426167,137,real,13
13055006,MARSEILLE-STE MARTHE,43.3385,5.4045,121,real,13
13055020,MARSEILLE-OLIVES,43.323333,5.456667,143,real,13
13055025,MARSEILLE,43.255667,5.38,5,real,13
13055029,MARSEILLE,43.310667,5.479167,192,real,13
13056002,CAP COURONNE,43.331667,5.053333,27,real,13
13056004,MARTIGUES,43.417167,5.042833,101,real,13
13059003,MEYRARGUES,43.641667,5.513333,210,real,13
13060002,MEYREUIL,43.486667,5.526667,176,real,13
13062002,MIMET,43.4185,5.499667,416,real,13
13071001,LES PENNES-MIRABEAU,43.408333,5.321667,80,real,13
13074002,PEYROLLES_FORET,43.623333,5.586667,295,real,13
13074003,PEYROLLES EN PROVENCE,43.656667,5.607,217,real,13
13077001,PORT-DE-BOUC-SJ,43.432167,5.0025,18,real,13
13077003,PORT-DE-BOUC-TP,43.397667,4.981833,2,real,13
13078001,PORT-ST-LOUIS-DU-RHONE-MAS,43.471667,4.786667,2,real,13
13078004,PORT-ST-LOUIS-DU-RHONE-GARAGE,43.393333,4.813333,1,real,13
13080001,LE-PUY-STE-REPA,43.639,5.4435,277,real,13
13082001,ROGNES,43.706667,5.358333,186,real,13
13085001,ROQUEFORT-LA-BEDOULE,43.2515,5.625,354,real,13
13086001,ROQUEVAIRE,43.366667,5.611667,175,real,13
13087001,ROUSSET,43.478333,5.636667,235,real,13
13089001,ST-ANDIOL,43.828333,4.971667,54,real,13
13091001,ST CANNAT,43.591333,5.251333,198,real,13
13091002,ST CANNAT,43.6045,5.317667,249,real,13
13092001,ST CHAMAS,43.5495,5.0395,10,real,13
13096001,STES MARIES-DDE,43.457167,4.427833,2,real,13
13096002,STES-MARIES-DE-LA-MER,43.448333,4.423333,1,real,13
13097002,ST-MARTIN-CRAU,43.596667,4.851667,21,real,13
13097004,ST-MARTIN-LE LUQUIER,43.628333,4.956667,50,real,13
13100002,ST-REMY-DE-PROVENCE,43.791167,4.835,49,real,13
13103001,SALON DE PROVENCE,43.612833,5.108,58,real,13
13108001,TARASCON-PC,43.811667,4.665,9,real,13
13110003,TRETS,43.445333,5.698667,264,real,13
13111002,VAUVENARGUES,43.551,5.68,565,real,13
18003003,LES AIX-D'ANG.,47.209667,2.552333,195,real,18
18011003,ARGENT,47.568333,2.438333,171,real,18
18015001,AUBIGNY,47.488333,2.441667,188,real,18
18015003,AUBIGNY-SUR-NERE,47.4995,2.427333,176,real,18
18023001,BAUGY,47.071167,2.713667,170,real,18
18030001,BLANCAFORT,47.549167,2.531167,219,real,18
18033001,BOURGES,47.059167,2.359833,161,real,18
18036001,BRINAY,47.166667,2.081,131,real,18
18037001,BRINON,47.5645,2.262333,133,real,18
18039001,BUE,47.316833,2.79,271,real,18
18047001,CHAPELLE-D'ANG_SAPC,47.373833,2.426667,190,real,18
18057003,CHATEAUMEILLANT,46.564,2.2175,243,real,18
18058002,CHATEAUNEUF,46.861833,2.332333,166,real,18
18059001,LE CHATELET,46.644,2.273833,210,real,18
18066002,CIVRAY,46.992167,2.182167,148,real,18
18082003,CUFFY,46.963833,3.053167,183,real,18
18083002,CULAN,46.551333,2.352167,272,real,18
18087001,DUN,46.878333,2.566167,160,real,18
18087003,DUN-SUR-AURON,46.9055,2.557833,167,real,18
18089001,EPINEUIL,46.563333,2.519833,228,real,18
18090001,ETRECHY,47.147167,2.698667,194,real,18
18092001,AVORD,47.052167,2.642167,175,real,18
18097001,FUSSY,47.144667,2.430333,152,real,18
18103001,GRACAY,47.139333,1.844667,108,real,18
18108001,LA GUERCHE,46.959167,2.955,185,real,18
18109002,HENRICHEMONT,47.285833,2.579167,377,real,18
18110004,HERRY,47.219667,2.949833,166,real,18
18116001,JALOGNES,47.227333,2.789333,207,real,18
18117001,JARS,47.385167,2.615167,282,real,18
18125001,LERE - BOURG,47.47,2.87,146,real,18
18125004,LERE,47.457833,2.893167,139,real,18
18126001,LEVET,46.941167,2.405833,174,real,18
18127001,LIGNIERES,46.753333,2.1985,191,real,18
18135001,MAISONNAIS,46.672667,2.2235,219,real,18
18137001,MAREUIL,46.8805,2.155667,137,real,18
18141001,MEHUN-SUR-YEVRE,47.146833,2.217833,122,real,18
18142001,MEILLANT,46.771667,2.495,195,real,18
18159001,NANCAY,47.393167,2.201,142,real,18
18165001,NEUVY-SUR-BAR.,47.323,2.243833,154,real,18
18171001,ORCENAIS,46.71,2.406167,212,real,18
18172001,ORVAL,46.721667,2.483167,165,real,18
18172003,ORVAL RAD,46.731,2.467333,165,real,18
18175001,OUROUER-LES-B.,46.919833,2.8185,253,real,18
18175003,OUROUER,46.925333,2.803333,221,real,18
18176001,PARASSY,47.230333,2.5245,257,real,18
18181001,PLOU,46.999667,2.122333,124,real,18
18183002,LE PONDY,46.803667,2.6415,171,real,18
18187004,PREVERANGES,46.425333,2.2365,462,real,18
18190001,QUINCY,47.129833,2.152333,124,real,18
18190002,QUINCY_SA,47.136333,2.137833,128,real,18
18197004,ST-AMAND-MTROND,46.737333,2.502833,177,real,18
18207003,ST-FLORENT/CHER,46.989333,2.248667,146,real,18
18218001,ST-JUST,46.986667,2.492333,143,real,18
18223003,ST-MARTIN-D'A.,47.200667,2.416833,172,real,18
18231001,ST-PIERRE,46.729,2.631667,174,real,18
18239001,SALIGNY,47.038333,2.763833,215,real,18
18240002,SANCERGUES,47.154667,2.910333,178,real,18
18241002,SANCERRE,47.336167,2.799,240,real,18
18242001,SANCOINS,46.831333,2.9265,203,real,18
18251001,SEVRY,47.138,2.804667,205,real,18
18262001,THAUVENAY,47.304167,2.868167,158,real,18
18262002,THAUVENAY_SA,47.302,2.8615,195,real,18
18269001,VAILLY,47.456833,2.641667,197,real,18
18269003,VAILLY/SAULDRE,47.453833,2.615833,226,real,18
18279001,VIERZON - VEVES,47.219167,2.0135,98,real,18
18279005,VIERZON,47.237833,2.073167,155,real,18
21010001,ALOXE CORTON,47.069,4.8615,273,real,21
21012001,AMPILLY LE SEC,47.808333,4.529,277,real,21
21030001,AUBAINE,47.166667,4.703833,380,real,21
21038001,AUXONNE,47.190167,5.38,185,real,21
21043001,BAIGNEUX LES JUIFS,47.600333,4.645167,415,real,21
21056001,BEIRE LE CHATEL,47.413833,5.208333,250,real,21
21065001,BESSEY,47.086,4.743167,593,real,21
21068001,BEUREY-BAUGUAY,47.233667,4.419833,410,real,21
21109001,BRION SUR OURCE,47.916167,4.659333,234,real,21
21116002,BURE LES TEMPLIERS_SAPC,47.7195,4.948167,461,real,21
21131001,PAGNY-LE-CHATEAU,47.043167,5.190667,182,real,21
21139001,CHAMPEAU-EN-M,47.257,4.133667,600,real,21
21142001,CHANCEAUX,47.524333,4.713333,465,real,21
21146001,CHARMES,47.377667,5.345333,198,real,21
21154001,CHATILLON/SEINE,47.849333,4.581333,262,real,21
21164002,CHAZILLY,47.188833,4.602,400,real,21
21228001,DETAIN-ET-BRUANT,47.172833,4.791167,590,real,21
21231001,DIJON,47.319167,5.014333,240,real,21
21231007,DIJON TOISON,47.358333,5.043333,270,real,21
21237001,ECHALOT,47.613333,4.835333,440,real,21
21296001,GEVROLLES,47.987833,4.775167,230,real,21
21299001,GISSEY-SOUS-FLAVIGNY,47.512,4.589,280,real,21
21304002,GRANCEY LE CHATEAU,47.668333,5.025333,403,real,21
21308001,GRIGNON,47.560833,4.407,335,real,21
21310001,GROSBOIS-EN-MONTAGNE,47.319333,4.596333,376,real,21
21312001,GURGY-LA-VILLE,47.848833,4.940333,301,real,21
21321001,JAILLY-LES-M.,47.458333,4.598333,310,real,21
21326001,JOURS LES BAIGNEUX_SAPC,47.636,4.596333,392,real,21
21332001,LABERGEMENT LES,47.006833,5.088833,203,real,21
21349001,LIERNAIS,47.207833,4.2835,492,real,21
21361001,LUX,47.487667,5.207,252,real,21
21380001,MARCIGNY SOUS THIL,47.3955,4.3845,316,real,21
21386001,MARIGNY LE CAHOUET,47.4475,4.4335,335,real,21
21390001,MARSANNAY LA COTE,47.266667,4.986833,280,real,21
21395001,MASSINGY-LES-VITTEAUX_SAPC,47.388667,4.586333,509,real,21
21406001,MESMONT,47.308167,4.733833,448,real,21
21410001,MEULSON,47.688333,4.698833,401,real,21
21425001,MONTBARD_SAPC,47.6285,4.3305,209,real,21
21445001,LA MOTTE-TERNANT,47.328,4.337167,362,real,21
21446001,MOUTIERS-ST-J.,47.563167,4.214667,277,real,21
21454001,NICEY,47.860333,4.315333,209,real,21
21461001,NOLAY,46.957833,4.6225,375,real,21
21464001,NUITS ST GEORGE,47.136667,4.953333,232,real,21
21471001,ORRET,47.596667,4.691667,420,real,21
21473001,DIJON-LONGVIC,47.267833,5.088333,219,real,21
21484001,PLANAY,47.746,4.381,278,real,21
21501003,POUILLY EN AUX_SAPC,47.251333,4.561,412,real,21
21503001,POUILLY SUR VINGEANNE,47.542667,5.417667,239,real,21
21515001,QUETIGNY,47.316167,5.126167,217,real,21
21519001,RECEY SUR OURCE,47.782167,4.864167,326,real,21
21525001,ROCHE EN BRENIL,47.375,4.178333,418,real,21
21527001,LA ROCHEPOT,46.9525,4.674,417,real,21
21546001,ST-DIDIER,47.325833,4.161833,553,real,21
21560001,ST-MARTIN-MER,47.238167,4.260833,521,real,21
21561001,ST-MARTIN (MAN),47.431667,4.788333,540,real,21
21561003,ST-MARTIN-DU-M,47.4005,4.781167,578,real,21
21564001,ST NIC. CITEAUX,47.122167,5.072167,203,real,21
21567001,ARNAY_SAPC,47.124833,4.498667,396,real,21
21584001,SAULIEU,47.264167,4.215,586,real,21
21589001,SAUSSY,47.468833,4.961833,554,real,21
21590001,SAVIGNY LES BEA,47.056333,4.836667,246,real,21
21603001,SEMUR EN AUXOIS_SAPC,47.482,4.34,314,real,21
21633002,THOREY SOUS CHARNY_SAPC,47.319167,4.4395,421,real,21
21638002,TIL-CHATEL_SAPC,47.544833,5.2075,283,real,21
21648001,TURCEY,47.408333,4.715,365,real,21
21656001,VARANGES,47.233333,5.196667,200,real,21
21663001,VENAREY LES LAU,47.545,4.456667,240,real,21
21676001,VIC-DE-CHASS.,47.468333,4.265,342,real,21
21685001,VILLAINES EN D,47.68,4.524833,344,real,21
21699001,VILLERS_LES_POTS,47.205833,5.350667,199,real,21
21710004,VITTEAUX,47.402833,4.543,312,real,21
21711001,VIX,47.908333,4.54,205,real,21
21714001,VOSNE ROMANEE,47.161833,4.954167,255,real,21
26002002,ALBON,45.27,4.816667,150,real,26
26002003,ALBON,45.252333,4.822333,153,real,26
26035001,BEAUFORT-S-GERV,44.778,5.139,379,real,26
26047001,BELLEGARDE-EN-D,44.535167,5.454333,1017,real,26
26050001,BESIGNAN,44.3205,5.317,556,real,26
26056001,BOURDEAUX,44.580167,5.142833,432,real,26
26059001,BOUVANTE,44.955,5.326667,1071,real,26
26059400,FONT D'URLE,44.907167,5.334333,1425,real,26
26063002,BUIS -BARONNIES,44.277833,5.270667,390,real,26
26064001,VALENCE-CHABEUI,44.914833,4.971833,163,real,26
26071001,CHANOS-CURSON,45.061667,4.918333,175,real,26
26074001,CHAPELLE-EN-VERCORS_SAPC,44.9615,5.422167,879,real,26
26086003,CHATILLON-EN-DI,44.693333,5.481667,570,real,26
26088001,CHATUZANGE-GOUB,45.038333,5.09,165,real,26
26100001,COMBOVIN,44.8345,5.09,820,real,26
26113003,DIE,44.767667,5.3435,384,real,26
26115001,DIVAJEU,44.726833,4.990333,175,real,26
26116002,DONZERE,44.429167,4.725333,66,real,26
26124001,ETOILE,44.819,4.8895,145,real,26
26142001,GLANDAGE_SAPC,44.674667,5.615167,1007,real,26
26165001,LIVRON,44.794167,4.830667,98,real,26
26167001,LUC-EN-DIOIS,44.617333,5.451,537,real,26
26168001,LUS L CROIX HTE,44.672833,5.710833,1059,real,26
26176001,MARSANNE,44.643333,4.871667,280,real,26
26177001,MARSAZ,45.113167,4.938667,213,real,26
26179001,MERCUROL,45.0585,4.8835,153,real,26
26182001,MIRABEL-AUX-BAR,44.328667,5.100833,238,real,26
26188001,MOLLANS-S-OUVEZ,44.234167,5.183167,280,real,26
26189001,MONTAUBAN-S-OUV,44.276,5.478333,689,real,26
26191001,MONTBOUCHER-S-J,44.545,4.824167,136,real,26
26198001,MONTELIMAR,44.581167,4.733,73,real,26
26202001,MONTJOUX,44.5095,5.097167,491,real,26
26203001,AIGUEBELLE,44.461333,4.842167,206,real,26
26211001,MONTSEGUR-S-LAU,44.3615,4.860833,146,real,26
26220009,NYONS - CSP,44.356667,5.121667,270,real,26
26220010,NYONS P182,44.359167,5.1155,316,real,26
26234001,PIEGROS,44.685,5.093333,320,real,26
26234002,PIEGROS,44.690333,5.109,260,real,26
26235001,PIERRELATTE,44.351833,4.715833,51,real,26
26258001,PUY-ST-MARTIN,44.618167,4.976833,211,real,26
26258003,PUY-ST-MARTIN_DOUBLE,44.618167,4.977833,211,real,26
26264002,REMUZAT,44.431667,5.367,475,real,26
26273002,ROCHEFORT-SAMSON_SAPC,44.990667,5.165167,368,real,26
26281001,ROMANS_SAPC,45.050167,4.998667,156,real,26
26281002,ROMANS-SUR-ISERE,45.052333,5.053667,168,real,26
26289001,SAILLANS,44.6965,5.193667,272,real,26
26290002,COL DE ROUSSET_SAPC,44.841667,5.421667,1400,real,26
26290400,Col du Rousset,44.838667,5.406667,1260,real,26
26292001,ST-AUBAN-S-OUVE,44.291667,5.415,625,real,26
26292002,ST-AUBAN-SUR-OUVEZE,44.294833,5.409833,625,real,26
26295001,ST-BARTHELEMY-V_SAPC,45.173833,4.9025,203,real,26
26298001,ST-CHRISTOPHE-L_SAPC,45.229333,5.071833,452,real,26
26307001,ST-JEAN-EN-ROYA,45.009167,5.2925,308,real,26
26313001,ST-MARCEL-LES-V-INRAE,44.980167,4.931333,190,real,26
26321003,ST-NAZAIRE-LE-D,44.5545,5.284833,607,real,26
26327001,ST ROMAN-DIOIS,44.693833,5.428333,545,real,26
26328001,ST SAUVEUR EN DIOIS,44.682667,5.157833,338,real,26
26330001,ST-SORLIN-EN-VA,45.271167,4.930333,237,real,26
26330002,ST-SORLIN-EN-VAL_DOUBLE,45.271667,4.931167,236,real,26
26340001,SEDERON,44.202333,5.538833,804,real,26
26348001,TAULIGNAN,44.430167,4.989833,257,real,26
26361001,VALDROME,44.505333,5.576667,786,real,26
26362003,VALENCE - ZUP,44.93,4.916667,150,real,26
26377003,VINSOBRES,44.337333,5.060167,346,real,26
26380002,GERVANS,45.1125,4.828833,157,real,26
30003001,AIGUES-MORTES,43.537167,4.207,1,real,30
30004001,AIGUES-VIVES,43.713333,4.208333,12,real,30
30007004,ALES,44.155,4.06,143,real,30
30009001,ALZON,43.979,3.444,611,real,30
30015002,ARPHY,44.017667,3.595,427,real,30
30032007,TARASCON,43.829833,4.640167,15,real,30
30034003,BELLEGARDE,43.78,4.48,45,real,30
30055001,BROUZET LES ALES,44.131167,4.284833,603,real,30
30065001,CANAULES-ET-ARGENTIERES,43.981833,4.046,101,real,30
30068001,CARDET,44.021,4.079667,109,real,30
30076001,CAVILLARGUES,44.113,4.518667,131,real,30
30081002,CHUSCLAN,44.134833,4.708333,30,real,30
30087002,COLOGNAC,44.021833,3.825,589,real,30
30093003,CONQUEYRAC,43.9405,3.9,135,real,30
30100001,CRUVIERS-LASCOURS,44.0025,4.200333,103,real,30
30101001,DEAUX,44.071833,4.143667,185,real,30
30106001,DURFORT ET ST MARTIN DE SOSSEN,43.991,3.953333,190,real,30
30123001,GALLARGUES LE MONTUEUX,43.714833,4.171667,17,real,30
30128001,GENERAC,43.7285,4.343333,72,real,30
30129001,GENERARGUES,44.073333,3.977667,139,real,30
30130001,GENOLHAC,44.342833,3.9615,519,real,30
30132003,LA GRAND COMBE,44.228333,4.016667,288,real,30
30132004,LA GRAND COMBE,44.243,4.010167,499,real,30
30133001,LE GRAU DU ROI,43.496,4.137167,1,real,30
30133005,L'ESPIGUETTE,43.487833,4.1405,1,real,30
30138001,LANGLADE,43.803,4.247667,90,real,30
30140001,LASALLE,44.043333,3.863333,278,real,30
30151002,LUSSAN-PRAT,44.133333,4.401667,226,real,30
30151004,LUSSAN,44.147667,4.365333,257,real,30
30153001,MALONS ET ELZE,44.428333,4.001667,803,real,30
30153003,MALONS ET ELZE,44.417333,4.022833,867,real,30
30154001,MANDAGOUT,44.0195,3.6265,485,real,30
30164001,MEJANNES-LE-CLAP,44.216333,4.331,313,real,30
30166001,MEYNES,43.861167,4.5255,71,real,30
30175001,MONTCLUS,44.268,4.430333,120,real,30
30176002,MONTDARDIER,43.947,3.58,640,real,30
30183001,MOULEZAN,43.930833,4.128167,108,real,30
30189001,NIMES-COURBESSAC,43.856833,4.406333,59,real,30
30189002,NIMES-PONGE,43.866,4.302833,164,real,30
30200002,POMPIGNAN,43.894833,3.852833,192,real,30
30202002,PONT ST ESPRIT,44.248333,4.627333,79,real,30
30209002,PUJAUT,43.9985,4.759667,44,real,30
30221001,ROQUEMAURE,44.046667,4.783333,25,real,30
30224001,LA ROUVIERE,43.931833,4.2405,79,real,30
30225002,SABRAN,44.134167,4.567167,204,real,30
30227001,ST AMBROIX,44.256667,4.21,139,real,30
30231001,ST-ANDRE-DE-VALEBORGNE,44.156667,3.683333,450,real,30
30231003,SAINT ANDRE DE VALBORGNE,44.137667,3.7505,354,real,30
30243001,ST CHRISTOL-LES-ALES,44.092167,4.080333,129,real,30
30258001,NIMES-GARONS,43.772833,4.412833,94,real,30
30263001,ST HIPPOLYTE,43.9615,3.835167,237,real,30
30269006,ST JEAN DU GARD,44.1105,3.872,196,real,30
30273001,ST JULIEN DE PEYROLAS,44.277,4.579333,71,real,30
30276001,ST-LAURENT-D AIGOUZE,43.544667,4.3045,2,real,30
30283001,ST MARTIAL,44.035833,3.7345,483,real,30
30297001,ST SAUVEUR CAMPRIEU,44.119333,3.4745,1107,real,30
30299001,ST SIFFRET,44.02,4.486667,135,real,30
30305001,SALINDRES,44.1745,4.1525,191,real,30
30325001,SUMENE,43.9755,3.715667,198,real,30
30325002,SUMENE,43.976333,3.709667,325,real,30
30331001,TRESQUES,44.123167,4.6,79,real,30
30332001,TREVES,44.077833,3.389333,565,real,30
30334001,UZES,44.005,4.42,138,real,30
30334003,UZES,43.9925,4.401833,72,real,30
30339001,MONT AIGOUAL,44.121333,3.5815,1567,real,30
30339006,VALLERAUGUE,44.081333,3.6345,360,real,30
30341001,VAUVERT-DDE,43.71,4.266667,17,real,30
30341003,VAUVERT,43.665,4.303333,50,real,30
30347001,VESTRIC-ET-CANDIAC,43.746833,4.2595,26,real,30
30349001,VIC LE FESQ,43.870833,4.072167,45,real,30
30350001,LE VIGAN,43.99,3.6115,222,real,30
30352002,VILLEVIEILLE,43.795167,4.090833,41,real,30
33009001,ARCACHON,44.663333,-1.15,4,real,33
33011001,ARES,44.77,-1.135,2,real,33
33021002,AUROS,44.493167,-0.1435,102,real,33
33029001,LE BARP,44.656667,-0.808333,55,real,33
33036001,BAZAS,44.438333,-0.23,85,real,33
33042001,BELIN-BELIET,44.4935,-0.7905,36,real,33
33042005,BELIN BELIET,44.448,-0.882,45,real,33
33049001,BEYCHAC ET CAIL,44.86,-0.353833,40,real,33
33051001,BIGANOS,44.646333,-0.983167,13,real,33
33063001,BORDEAUX-PAULIN,44.849667,-0.588667,10,real,33
33076001,BUDOS,44.533333,-0.37,24,real,33
33077001,CABANAC ET VILL,44.606167,-0.5525,45,real,33
33077002,CABANAC ET VILL,44.568333,-0.55,72,real,33
33080001,CADAUJAC-INRAE,44.7525,-0.5605,25,real,33
33095001,CAPTIEUX,44.295167,-0.2605,96,real,33
33097002,CARCANS,45.051667,-1.055,21,real,33
33116001,CAZATS,44.463167,-0.186167,114,real,33
33119001,CENON,44.856667,-0.5,66,real,33
33122003,PIERROTON-INRAE,44.738333,-0.776667,60,real,33
33138001,COUTRAS,45.040333,-0.1145,21,real,33
33145001,CURSAN,44.790667,-0.3515,94,real,33
33150001,DIEULIVOL,44.665,0.088333,27,real,33
33151001,DONNEZAC,45.243,-0.4425,62,real,33
33159001,ETAULIERS,45.225,-0.571667,7,real,33
33195001,GRIGNOLS,44.385667,-0.040333,146,real,33
33198001,GUITRES,45.044333,-0.183833,20,real,33
33203001,HOURTIN,45.187167,-1.055833,17,real,33
33214002,LACANAU,45.001167,-1.138167,16,real,33
33218001,LAGORCE,45.075,-0.149,22,real,33
33230002,LAPOUYADE,45.126333,-0.286833,70,real,33
33234002,LATRESNE-INRAE,44.780667,-0.479167,64,real,33
33236002,CAP-FERRET,44.6305,-1.251667,8,real,33
33236004,LEGE-BOURG,44.799,-1.141333,9,real,33
33240001,LESPARRE MEDOC,45.310167,-0.921333,14,real,33
33242001,LES LEVES THOUM,44.773667,0.2085,80,real,33
33281001,BORDEAUX-MERIGNAC,44.830667,-0.691333,47,real,33
33289002,MONSEGUR,44.652667,0.096833,85,real,33
33298002,MOULON,44.891667,-0.231667,5,real,33
33314003,PAUILLAC-SUD,45.1885,-0.758833,19,real,33
33314005,PAUILLAC,45.214333,-0.782833,26,real,33
33328001,POMEROL,44.931667,-0.188333,35,real,33
33343001,PUJOLS,44.581667,-0.345,18,real,33
33345001,LE PUY,44.659667,0.081,28,real,33
33394002,ST EMILION,44.917667,-0.188,38,real,33
33415001,ST GERVAIS,45.027167,-0.472667,42,real,33
33424001,ST LAURENT MEDOC,45.1485,-0.823167,8,real,33
33432002,ST-LOUBERT,44.558333,-0.168333,34,real,33
33445001,ST-MARTIN-DU-BO,45.035667,-0.258167,66,real,33
33456001,SAINT PALAIS,45.308167,-0.586833,65,real,33
33473001,ST-SAVIN,45.138833,-0.439167,90,real,33
33482001,ST SULPICE DE POMMIERS,44.683833,-0.12,82,real,33
33484001,ST-SYMPHORIEN,44.426833,-0.489,54,real,33
33484002,ST-SYMPHORIENJ,44.41,-0.558333,75,real,33
33494001,SALAUNES,44.935833,-0.828667,50,real,33
33504001,SAUTERNES,44.544333,-0.326833,65,real,33
33506001,SAUVETERRE-DE-G,44.698333,-0.093333,75,real,33
33514003,SOULAC-SUR-MER,45.495,-1.08,3,real,33
33522001,TALENCE,44.809167,-0.590167,15,real,33
33523001,TARGON,44.733333,-0.262167,61,real,33
33525001,TAURI,45.06,-0.505,23,real,33
33528001,LE TEMPLE,44.863667,-0.9385,43,real,33
33529001,CAZAUX,44.534667,-1.132,23,real,33
33540001,VENDAYS-MONTALIVE,45.378667,-1.119167,6,real,33
33541001,VENSAC DAVID,45.394,-1.0395,8,real,33
33544001,LE VERDON-SUR-M,45.543167,-1.042667,6,real,33
33550001,VILLENAVE D'ORNON-INRAE,44.79,-0.576667,25,real,33
34008001,LES AIRES,43.584167,3.108333,190,real,34
34010001,ANIANE,43.682833,3.583167,65,real,34
34026001,BEAUFORT,43.298333,2.756667,86,real,34
34028003,BEDARIEUX,43.639833,3.146,373,real,34
34030002,BERLOU,43.490833,2.963,191,real,34
34032002,BEZIERS-COURTADE,43.334333,3.155,25,real,34
34032015,BEZIERS-BAYSSAN,43.302333,3.202167,37,real,34
34038001,LE BOUSQUET-D ORB,43.709667,3.162667,278,real,34
34040001,BRENAS,43.6535,3.256833,439,real,34
34046005,CAMBON-ET-SALVERGUES,43.622333,2.865333,955,real,34
34051001,CANET,43.595833,3.474833,46,real,34
34055002,CASTANET-LE-HAUT,43.683333,2.983,625,real,34
34055003,CASTANET LE HAUT_SAPC,43.6675,2.976167,424,real,34
34064002,LE CAYLAR G.,43.86,3.325,730,real,34
34064003,LE CAYLAR_SAPC,43.867167,3.3085,729,real,34
34069001,CAZOULS-LES-BEZIERS,43.403,3.097167,97,real,34
34079001,CLERMONT L HERA,43.636667,3.441667,98,real,34
34079004,CLERMONT L'HERAULT,43.6565,3.3985,145,real,34
34082001,COMBAILLAUX,43.676667,3.78,100,real,34
34086001,COURNIOU,43.495,2.695333,501,real,34
34101001,FLORENSAC,43.3895,3.466333,20,real,34
34107004,FRAISSE SUR AGO,43.603333,2.806667,850,real,34
34107006,MURAT SUR VEBRE,43.633333,2.8255,1022,real,34
34114001,GIGNAC,43.663333,3.563333,58,real,34
34115001,ROC BLANC,43.866667,3.633333,942,real,34
34135001,LESPIGNAN,43.274,3.165,23,real,34
34141002,LA LIVINIERE,43.314333,2.636167,131,real,34
34142001,LODEVE,43.730333,3.303167,184,real,34
34144001,LUNAS,43.695833,3.170667,249,real,34
34145001,LUNEL,43.665,4.131667,6,real,34
34150001,MARSEILLAN-INRAE,43.328333,3.565333,1,real,34
34151005,MARSILLARGUES,43.633833,4.168,4,real,34
34154001,MONTPELLIER-AEROPORT,43.576167,3.964667,1,real,34
34163001,MONTARNAUD,43.635833,3.688167,148,real,34
34172001,MONTPELLIER-ENSAM,43.618333,3.858333,45,real,34
34174002,MOULES-ET-BAUCELS,43.948,3.752,252,real,34
34178001,MURVIEL LES BEZIERS,43.476,3.146,140,real,34
34186001,OCTON,43.655,3.306167,184,real,34
34187001,OLARGUES,43.56,2.911667,182,real,34
34199001,PEZENAS-DDE,43.457667,3.414667,15,real,34
34200003,PEZENES-MAS BOUSQUET,43.622,3.251333,389,real,34
34205001,LES PLANS,43.786,3.246167,846,real,34
34209002,BEZIERS-VIAS,43.322,3.352667,15,real,34
34210001,LE POUGET,43.581667,3.521667,70,real,34
34212001,POUJOLS,43.7645,3.325667,276,real,34
34217001,PRADES LE LEZ,43.718333,3.866667,69,real,34
34228002,RIEUSSEC,43.418,2.741167,500,real,34
34232001,ROQUEBRUN,43.501667,3.028333,155,real,34
34233001,ROQUEREDONDE,43.8,3.212667,685,real,34
34237001,ROUJAN-INRAE,43.491667,3.321333,73,real,34
34239002,ST ANDRE DE SANGONIS,43.664167,3.507833,86,real,34
34245001,ST CHINIAN,43.421667,2.951667,130,real,34
34249002,ST DREZERY,43.728833,3.993333,71,real,34
34258001,ST GENIES LE BA,43.468333,3.18,93,real,34
34260001,ST GERVAIS,43.656333,3.045333,320,real,34
34269001,ST JEAN DE MINERVOIS,43.385667,2.857667,258,real,34
34274001,ST MARTIN DE LONDRES,43.7795,3.729333,214,real,34
34277001,ST MAURICE-NAVACELLE,43.841333,3.522333,584,real,34
34284001,ST PONS,43.489333,2.755,384,real,34
34293001,LA SALVETAT,43.602167,2.704,693,real,34
34300001,SERVIAN,43.442167,3.3315,66,real,34
34300002,SERVIAN,43.413167,3.304,52,real,34
34301002,SETE,43.397333,3.692167,75,real,34
34302001,SIRAN,43.3265,2.675167,137,real,34
34306001,SOUMONT,43.707,3.3475,252,real,34
34311001,PEZENAS-TOURBES,43.437667,3.400333,40,real,34
34317001,LA VACQUERIE_SAPC,43.792,3.457833,620,real,34
34319001,VAILHAN,43.546833,3.299333,122,real,34
34322003,VALFLAUNES-PLAINE,43.788167,3.844667,126,real,34
34330001,VERARGUES,43.721333,4.096667,56,real,34
34337001,VILLENEUVE-LES-MAG-INRAE,43.538167,3.853833,20,real,34
34344001,LA GRANDE MOTTE,43.5565,4.082,2,real,34
37003001,AMBOISE,47.393833,0.976833,119,real,37
37003004,AMBOISE - LYCEE,47.394167,0.977,116,real,37
37009001,AUTRECHE,47.545,0.986667,108,real,37
37012001,AVON-LES-ROCHES,47.179667,0.471667,106,real,37
37023002,BEAUMONT_SAPC,47.177167,1.211667,126,real,37
37027001,BLERE,47.323333,1.025,61,real,37
37031001,BOURGUEIL,47.278333,0.162167,31,real,37
37033001,BOUSSAY,46.853167,0.866167,130,real,37
37055002,CHANNAY/LATHAN,47.4795,0.255333,87,real,37
37063001,CHATEAU-RENAULT,47.597667,0.925833,98,real,37
37067003,CHEILLE,47.260833,0.403833,60,real,37
37068001,CHEMILLE,47.648333,0.64,100,real,37
37072002,CHINON - VITI,47.184333,0.233833,76,real,37
37083001,CORMERY,47.2645,0.836667,85,real,37
37087001,COURCOUE,47.0095,0.396333,115,real,37
37103001,ESVES-LE-MOUT.,47.042667,0.893333,90,real,37
37107001,FERRIERE-LARCON,46.9875,0.875,116,real,37
37109001,FONDETTES,47.425333,0.604167,93,real,37
37113001,LE GRAND-PRES.,46.921167,0.796333,58,real,37
37115001,DESCARTES,46.971833,0.702333,65,real,37
37119001,L'ILE-BOUCHARD,47.114167,0.425167,39,real,37
37120001,INGRANDES -BLTO,47.288333,0.268333,56,real,37
37122001,JOUE-LES-TOURS OB,47.325333,0.661,93,real,37
37122003,JOUE-LES-TOURS,47.337167,0.665333,93,real,37
37128002,LIGNIERES-DE-T.,47.293,0.402833,32,real,37
37129001,LIGRE - PICHET,47.118333,0.251667,75,real,37
37129002,LIGRE,47.112333,0.273,67,real,37
37131002,LIMERAY,47.461167,1.011833,113,real,37
37136002,LE LOUROUX,47.156333,0.696833,123,real,37
37139001,LUYNES,47.393333,0.555,85,real,37
37141001,LUZILLE,47.269833,1.0425,93,real,37
37150002,MAZIERES,47.387833,0.400333,92,real,37
37153001,MONNAIE,47.494833,0.784167,123,real,37
37156002,MONTLOUIS,47.373333,0.823333,50,real,37
37157001,MONTRESOR,47.156667,1.203333,93,real,37
37170001,NEUVY-LE-ROI,47.608,0.596,103,real,37
37179001,TOURS,47.4445,0.727333,108,real,37
37183001,PERRUSSON,47.110333,1.023833,110,real,37
37192001,REIGNAC,47.219333,0.899,90,real,37
37194001,REUGNY,47.467,0.889333,104,real,37
37208001,ST-AVERTIN,47.346667,0.731,90,real,37
37211002,ST-BRANCHS,47.245,0.813833,85,real,37
37212001,STE-CATHERINE,47.127333,0.694667,116,real,37
37213001,ST-CHRIST.-SICA,47.611667,0.473333,64,real,37
37213003,ST-CHRISTOPHE-SUR-NAIS,47.6155,0.464333,107,real,37
37214001,ST-CYR/LOIRE,47.423167,0.663667,93,real,37
37216002,ST-EPAIN,47.157167,0.604833,112,real,37
37216003,SAINT EPAIN,47.157167,0.604833,112,real,37
37223001,ST-LAURENT-DE-L,47.517333,0.262667,69,real,37
37224001,ST-LAURENT-EN-G,47.571333,0.7765,155,real,37
37228001,ST-NICOLAS-DE-BOURGUEIL,47.29,0.107833,44,real,37
37240001,SAUNAY,47.590333,0.931333,109,real,37
37241001,SAVIGNE/LATHAN,47.4415,0.319667,88,real,37
37242002,SAVIGNY - VERON,47.227,0.149333,33,real,37
37249001,SONZAY,47.5185,0.470667,117,real,37
37253001,SUBLAINES,47.265,0.993167,111,real,37
37261002,TOURS - CARCAS.,47.412333,0.709167,95,real,37
39013002,ARBOIS,46.901667,5.743333,323,real,39
39013004,ARBOIS_SAPC,46.896,5.740167,313,real,39
39016001,ARINTHOD,46.396667,5.568333,445,real,39
39043001,BEAUFORT,46.5735,5.435167,250,real,39
39047001,BELLEFONTAINE,46.558333,6.064333,1030,real,39
39050001,BESAIN,46.785,5.796667,535,real,39
39085002,CERNIEBAUD,46.734667,6.115833,966,real,39
39086001,CERNON,46.398333,5.651667,500,real,39
39097003,CHAMPAGNOLE,46.756833,5.886,537,real,39
39104001,CHAPELLE-VOLAND,46.773333,5.393333,212,real,39
39113001,CHASSAL,46.365833,5.802667,375,real,39
39118001,CHATEL-DE-JOUX,46.5265,5.795667,769,real,39
39121001,CHATENOIS,47.146667,5.55,215,real,39
39130002,CHAUX-DES-PRES-INRAE,46.509,5.865,854,real,39
39138001,CHEMIN,46.978333,5.316167,184,real,39
39149003,CHISSEY,47.020833,5.724167,226,real,39
39156001,COGNA,46.5815,5.764667,577,real,39
39159002,COLONNE,46.867667,5.572167,244,real,39
39177001,CRANCOT,46.690167,5.659,509,real,39
39198001,DOLE,47.063667,5.496,212,real,39
39199001,DOMBLANS,46.763333,5.598333,253,real,39
39225001,LE FIED SA,46.766667,5.72,525,real,39
39225002,LE FIED_SAPC,46.768167,5.717333,522,real,39
39235001,FRAISANS,47.148667,5.768333,254,real,39
39240001,LE FRASNOIS,46.634333,5.895167,773,real,39
39268001,IVREY,46.989167,5.903333,465,real,39
39275004,LAMOURA,46.390833,5.959667,1124,real,39
39288001,LAVIGNY,46.717167,5.5975,320,real,39
39294001,LEZAT,46.496333,5.934667,693,real,39
39296001,LOMBARD,46.781,5.503167,242,real,39
39335001,MOISSEY,47.197333,5.527,256,real,39
39348001,MONTAIGU,46.651667,5.578333,495,real,39
39362001,LONS LE SAUNIER,46.692833,5.517667,298,real,39
39397002,ORGELET,46.525,5.617667,493,real,39
39413001,LA PESSE,46.302833,5.843,1133,real,39
39420001,PIMORIN,46.503333,5.505,503,real,39
39436001,PONT-D HERY,46.881667,5.9085,679,real,39
39470001,LES ROUSSES,46.481667,6.061667,1110,real,39
39475001,ST AMOUR,46.438333,5.343333,250,real,39
39478004,ST CLAUDE,46.445333,5.879667,580,real,39
39485001,ST JULIEN,46.388333,5.451667,365,real,39
39485002,ST JULIEN - SA,46.385167,5.448,361,real,39
39487001,ST LAURENT - MF,46.573333,5.957333,916,real,39
39487004,ST LAURENT - SA,46.585,5.953333,880,real,39
39487005,ST LAURENT,46.576667,5.948333,895,real,39
39500001,SALINS,46.928333,5.891667,365,real,39
39522001,SUPT,46.849667,5.962,657,real,39
39523001,SYAM,46.701667,5.948333,555,real,39
39526001,TAVAUX,47.041667,5.416667,193,real,39
39526003,TAVAUX SA,47.043833,5.427333,195,real,39
39530001,THOIRETTE,46.271167,5.5325,325,real,39
39546001,VAUDREY,46.975,5.621667,225,real,39
41003001,AREINES,47.801667,1.091667,80,real,41
41018001,BLOIS - VILLE,47.572,1.3375,69,real,41
41050002,CHEVERNY,47.505167,1.436333,99,real,41
41053001,CHOUE,47.969167,0.912833,163,real,41
41059001,CONTRES,47.420667,1.443167,103,real,41
41075002,DROUE,48.0415,1.080667,161,real,41
41075003,DROUE - MORACHE,48.016167,1.031667,206,real,41
41080001,FAVEROLLES,47.331833,1.1655,77,real,41
41097001,ROMORANTIN,47.319667,1.6875,83,real,41
41106001,LAMOTTE-BEUVRON,47.6105,2.012,117,real,41
41116001,LISLE,47.849833,1.111667,85,real,41
41135001,MENNETOU,47.2695,1.8745,100,real,41
41140001,MILLANCAY,47.427667,1.791333,112,real,41
41144001,MONTEAUX,47.485833,1.0845,100,real,41
41147001,LES MONTILS,47.510667,1.332333,87,real,41
41149001,MONTOIRE,47.750667,0.876333,73,real,41
41149004,MONTOIRE/LOIR,47.751667,0.873333,73,real,41
41152001,MONTRIEUX,47.535833,1.7305,96,real,41
41164002,NOYERS-SUR-CHER,47.271667,1.426667,92,real,41
41166002,OISLY,47.4025,1.365333,124,real,41
41173002,OUZOUER-ARVALIS,47.904,1.522167,129,real,41
41173003,OUZOUER,47.904,1.521667,128,real,41
41197001,ST-AGIL,48.028333,0.923333,172,real,41
41199002,ST-AMAND-LGPRE,47.687833,1.017333,120,real,41
41200001,STE ANNE,47.755667,1.075,131,real,41
41221001,ST-LEONARD-EN-B,47.798167,1.367333,126,real,41
41221002,ST-LEONARD,47.798333,1.341667,126,real,41
41225001,ST-MARTIN-DES-BOIS,47.72,0.818333,113,real,41
41229001,ST-ROMAIN,47.314667,1.406667,104,real,41
41240001,SEILLAC,47.555,1.181667,110,real,41
41241001,SELLES SAINT DENIS,47.333833,1.8905,98,real,41
41242001,SELLES-SUR-CHER,47.279833,1.597667,83,real,41
41243001,SELOMMES,47.752667,1.198167,120,real,41
41249002,SOUESMES,47.460833,2.176667,128,real,41
41256002,THEILLAY,47.315333,2.089333,140,real,41
41262001,TOUR-EN-SOLOGNE,47.533333,1.493333,81,real,41
41269001,VENDOME,47.826667,1.054333,115,real,41
41281001,BLOIS,47.6785,1.212333,119,real,41
41285001,VILLENY,47.610667,1.743667,127,real,41
44002001,AIGREFEUILLE,47.0665,-1.391833,35,real,44
44003001,ANCENIS,47.375,-1.1815,27,real,44
44004001,ANETZ,47.376333,-1.100833,23,real,44
44015001,BLAIN,47.472833,-1.771667,13,real,44
44020001,NANTES-BOUGUENAIS,47.15,-1.608833,26,real,44
44021001,BOURGNEUF,47.0605,-1.928,20,real,44
44021002,BOURGNEUF,47.041167,-1.957,6,real,44
44051002,DERVAL,47.692333,-1.687167,43,real,44
44067001,GUEMENE-PENFAO,47.625333,-1.889833,33,real,44
44068001,GUENROUET,47.498333,-1.923333,7,real,44
44069002,GUERANDE,47.292333,-2.430167,4,real,44
44070001,HAIE-FOUASSIERE,47.161833,-1.384667,20,real,44
44072002,HERBIGNAC,47.4265,-2.3365,22,real,44
44077001,JOUE-SUR-ERDRE,47.518,-1.4275,42,real,44
44087001,MACHECOUL,46.993333,-1.808333,5,real,44
44097001,MESQUER,47.406,-2.463,3,real,44
44103001,ST NAZAIRE-MONTOIR,47.313833,-2.1545,3,real,44
44109001,NANTES-DOULON,47.22,-1.520667,13,real,44
44109002,NANTES-CONTRIE,47.22,-1.598333,63,real,44
44109012,NANTES-VILLE,47.227667,-1.514,17,real,44
44110002,NORT-SUR-ERDRE,47.425167,-1.513667,13,real,44
44113001,NOZAY,47.572833,-1.6115,44,real,44
44117002,LE PALLET_SAPC,47.1415,-1.336833,35,real,44
44120002,PELLERIN(LE),47.210333,-1.828667,4,real,44
44120800,LE PELLERIN_DOUBLE,47.2105,-1.827,4,real,44
44129001,PONTCHATEAU,47.439667,-2.105167,34,real,44
44131001,PORNIC,47.101167,-2.071833,21,real,44
44131002,PORNIC,47.122,-2.0925,25,real,44
44154001,ST-BREVIN-PINS,47.24,-2.152167,12,real,44
44168001,SAINT-JOACHIM_SAE,47.3815,-2.1925,3,real,44
44180001,ST-MARS-LA-JAIL,47.526667,-1.185,30,real,44
44180005,ST-MARS-LA-JAIL,47.526167,-1.185333,32,real,44
44181001,ST-MEME-LE-TENU,47.005667,-1.7825,4,real,44
44184001,PTE DE CHEMOULIN,47.233667,-2.2985,14,real,44
44188001,ST-PHILBERT,47.029167,-1.652833,18,real,44
44195003,SAVENAY,47.346167,-1.925333,11,real,44
44199002,SOUDAN,47.737167,-1.2765,77,real,44
44217001,VIGNEUX,47.3075,-1.685833,75,real,44
48004001,ALTIER,44.494,3.852,900,real,48
48009001,AUMONT AUBRAC,44.727167,3.279833,1018,real,48
48014001,BAGNOLS,44.505167,3.667667,918,real,48
48019001,BARRE-DES-CEVENNES,44.250333,3.651333,897,real,48
48020003,BASSURELS,44.1965,3.630667,1042,real,48
48027002,LE BLEYMARD BOURG,44.504667,3.737667,1199,real,48
48027003,LE BLEYMARD_SAPC,44.4515,3.748167,1418,real,48
48030001,MENDE-BRENOUX,44.506,3.527333,1019,real,48
48031002,BRION,44.743,3.086167,1217,real,48
48032002,LE BUISSON,44.648333,3.221667,1110,real,48
48032003,LE BUISSON,44.633333,3.238167,1088,real,48
48036001,CASSAGNAS,44.270333,3.763333,802,real,48
48039001,CHANAC,44.465333,3.3405,672,real,48
48040001,CHASSERADES,44.5375,3.834333,1052,real,48
48043001,CHATEAUNEUF-DE-RANDON,44.638167,3.679833,1247,real,48
48045001,CHAUDEYRAC,44.665,3.76,1140,real,48
48049001,CHIRAC,44.536667,3.216667,1000,real,48
48051002,LE COLLET-SAUVEPLANE,44.256,3.925667,485,real,48
48057002,ESTABLES,44.656667,3.5435,1552,real,48
48060001,FAU DE PEYRE,44.763167,3.211833,1163,real,48
48061002,FLORAC,44.309,3.596333,618,real,48
48069001,GATUZIERES_SAPC,44.195333,3.499,965,real,48
48070004,GRANDRIEU,44.780667,3.633833,1163,real,48
48074003,HURES-LA-PARADE,44.249667,3.403,1028,real,48
48080002,LANGOGNE-CFPPA,44.733333,3.858333,934,real,48
48087001,MALBOUZON,44.700333,3.136167,1174,real,48
48090004,LE MALZIEU,44.854,3.330667,859,real,48
48094001,LE MASSEGROS,44.295667,3.165667,890,real,48
48095004,MENDE-VILLE,44.516833,3.489833,710,real,48
48095005,MENDE,44.533667,3.4545,932,real,48
48096004,MEYRUEIS-FREPES,44.206,3.455167,1054,real,48
48103001,MONTRODAT,44.545833,3.3125,746,real,48
48104002,NASBINALS,44.642,2.9955,1284,real,48
48105001,NAUSSAC,44.748333,3.828333,967,real,48
48108001,LA PANOUSE_SAPC,44.728667,3.589333,1260,real,48
48110001,PAULHAC EN MARGERIDE_SAPC,44.947667,3.38,1170,real,48
48116001,LE PONT-DE-MONTVERT,44.365667,3.738333,875,real,48
48126001,RIBENNES,44.647667,3.419667,1057,real,48
48130002,ROUSSES_SAPC,44.206833,3.5845,812,real,48
48132001,ST ALBAN SUR LIMAGNOLE,44.784667,3.387,960,real,48
48140003,ST CHELY-D APCHER,44.815333,3.268667,1032,real,48
48142001,STE COLOMBE DE PEYRE,44.6505,3.249333,1122,real,48
48145001,ST-DENIS-EN-MARGERIDE,44.736667,3.473333,1172,real,48
48145002,LES BOUVIERS,44.746667,3.521667,1418,real,48
48146001,STE ENIMIE-SAUVETERRE,44.408667,3.438167,1018,real,48
48146002,STE ENIMIE,44.363833,3.4125,480,real,48
48148004,ST-ETIENNE-VALLEE-FRANCAISE,44.165833,3.854167,518,real,48
48154001,ST GEORGES DE L,44.366667,3.233333,911,real,48
48156002,ST GERMAIN DU TEIL,44.478,3.160667,775,real,48
48171001,ST MARTIN DE LANSUSCLE,44.207,3.7685,643,real,48
48176002,ST PIERRE-DES-TRIPIERS,44.2465,3.3035,929,real,48
48182001,ST SAUVEUR,44.703667,3.606167,1300,real,48
48186001,LA SALLE PRUNET,44.315667,3.650667,903,real,48
48187003,LES SALCES-FROMENTAL,44.532667,3.155167,1075,real,48
48190001,TERMES,44.821667,3.16,1090,real,48
48194005,VIALAS-LE BOS,44.332,3.882833,625,real,48
48198001,VILLEFORT,44.441667,3.928333,620,real,48
49007002,ANGERS_VILLE,47.467833,-0.552333,47,real,49
49007011,ANGERS VILLE,47.4535,-0.5605,35,real,49
49008001,ANGRIE,47.561667,-0.970333,65,real,49
49020001,BEAUCOUZE,47.479,-0.614333,50,real,49
49021001,BEAUFORT-EN-VA,47.441667,-0.2405,28,real,49
49022001,BEAULIEU-S-LAY,47.308,-0.598333,78,real,49
49023003,BEAUPREAU,47.207167,-0.988667,100,real,49
49027001,BEGROLLES,47.152167,-0.937667,100,real,49
49027800,BEGROLLES_DOUBLE,47.152167,-0.937667,100,real,49
49029001,BLAISON-GOHIER,47.396333,-0.356833,68,real,49
49050001,BRISSAC-QUINCE,47.3405,-0.442833,60,real,49
49054001,CANDE,47.56,-1.033833,44,real,49
49054002,CANDSA,47.560333,-1.014,57,real,49
49068001,CHAMPTOCE,47.457833,-0.9175,61,real,49
49080001,CHATEAUNEUF s/S,47.6795,-0.5025,43,real,49
49092001,CHEMILLE,47.2175,-0.7265,88,real,49
49099003,CHOLET,47.0795,-0.8805,134,real,49
49127001,DURTAL,47.673167,-0.236667,40,real,49
49138001,FONTAINE-GUERIN,47.493167,-0.167833,41,real,49
49149001,GENNES,47.336333,-0.231333,48,real,49
49176001,LE LION D'ANG.,47.6135,-0.735167,52,real,49
49180001,LONGUE,47.375667,-0.117333,35,real,49
49188001,MARCE,47.561833,-0.317,53,real,49
49191001,MARTIGNE-BRIAND,47.2525,-0.435833,73,real,49
49201001,LA MENITRE,47.403833,-0.275,22,real,49
49206001,MONTFAUCON,47.100167,-1.1235,57,real,49
49215001,MONT.-BELLAY,47.142167,-0.151667,49,real,49
49215002,MONT-BELLAY-INRAE,47.13,-0.1415,58,real,49
49216001,MONTREUIL SUR LOIR,47.577,-0.386333,23,real,49
49218002,MONTREVAULT,47.258333,-1.048167,55,real,49
49228001,NOYANT,47.514167,0.123,76,real,49
49244001,LA POMMERAYE,47.359833,-0.8435,91,real,49
49248001,POUANCE,47.742667,-1.171167,69,real,49
49248003,POUANCE_SAPC,47.74,-1.188333,96,real,49
49276001,ST FLORENT VIEI,47.355333,-1.011833,21,real,49
49281001,ST GEORGES GARD,47.150667,-0.7395,203,real,49
49282001,ST GEORGES S LA,47.202333,-0.376,48,real,49
49298001,ST LEGER DES BOIS,47.451667,-0.708667,57,real,49
49307001,ST MATHURIN S L,47.425667,-0.319167,20,real,49
49328001,SAUMUR,47.252167,-0.074333,69,real,49
49331002,SEGRE,47.698333,-0.871,49,real,49
49331003,SEGRE_SAPC,47.679167,-0.873333,25,real,49
49333001,SEICHES SUR LOIR,47.5745,-0.358167,28,real,49
49347001,TIERCE,47.618,-0.4555,22,real,49
49368001,VERNANTES,47.406833,0.018833,41,real,49
49373001,VIHIERS,47.148,-0.517167,124,real,49
51009001,ANGLURE,48.586333,3.819,77,real,51
51015001,ARGERS,49.064333,4.849833,152,real,51
51029003,AVIZE,48.991,4.026667,115,real,51
51029004,AVIZE-CIVC,48.978,4.01,175,real,51
51035001,BANNES,48.802167,3.92,143,real,51
51053001,BERZIEUX,49.165,4.795833,140,real,51
51056001,BETHON,48.607,3.619833,135,real,51
51075001,BOURGOGNE,49.348667,4.068833,85,real,51
51079001,BOUZY-CIVC,49.091667,4.149167,153,real,51
51098001,BUSSY,48.892167,4.754333,148,real,51
51111001,CHAMBRECY-CIVC,49.183333,3.824167,150,real,51
51129001,CHARLEVILLE,48.815167,3.665667,205,real,51
51130001,CHARMONT,48.8775,4.902833,183,real,51
51135001,CHATILLON SUR BROUE,48.550667,4.706667,138,real,51
51136001,CHATILLON-MAN,49.1005,3.764167,115,real,51
51136003,CHATILLON-CIVC,49.098667,3.7595,153,real,51
51153001,CHOUILLY,49.017833,3.981667,172,real,51
51171001,CORMICY,49.370833,3.891,90,real,51
51183001,REIMS-COURCY,49.306167,4.050667,91,real,51
51188001,COURMAS,49.191667,3.91,175,real,51
51210001,DIZY,49.069333,3.966167,92,real,51
51212001,DOMMARTIN,48.75,4.283333,160,real,51
51230002,EPERNAY,49.033333,4,90,real,51
51237001,ESTERNAY-MAN,48.737833,3.575667,175,real,51
51237002,ESTERNAY,48.742,3.579667,185,real,51
51242001,FAGNIERES-INRAE,48.939833,4.3085,105,real,51
51244001,FAUX-VESIGNEUL,48.778833,4.399167,132,real,51
51248002,FERE-CHAMP,48.771667,4.033333,163,real,51
51250001,FISMES ST LADRE,49.3075,3.69,80,real,51
51259001,FRANCHEVILLE,48.891,4.541167,98,real,51
51262001,FRIGNICOURT,48.701167,4.618,113,real,51
51266001,GERMAINE,49.115167,4.0315,210,real,51
51266002,GERMAINE-CIVC,49.123167,4.032333,172,real,51
51269001,GIFFAUMONT,48.566667,4.766667,140,real,51
51298001,IGNY-COMBLIZY,49.016667,3.716833,225,real,51
51304001,JANVILLIERS,48.8945,3.646167,224,real,51
51338001,MAILLY-CIVC,49.155333,4.116333,182,real,51
51361001,MEIX TIERCELIN,48.6365,4.422167,137,real,51
51381003,MONTMORT-MAN,48.929167,3.845667,192,real,51
51381004,MONTMORT,48.941667,3.823333,185,real,51
51388001,MOURMELON,49.15,4.4,112,real,51
51388003,MOURMELON-GRAND,49.1075,4.3585,115,real,51
51440001,PONTFAVERGER-MA,49.2935,4.317833,100,real,51
51440003,PONTFAVERGER,49.29,4.32,100,real,51
51449001,PRUNAY,49.213,4.157167,95,real,51
51449002,REIMS-PRUNAY,49.209833,4.155333,95,real,51
51454001,REIMS-VILLE,49.25,4.05,99,real,51
51454002,REIMS-CATHE,49.25,4.025,175,real,51
51456002,REMICOURT,48.955,4.868333,170,real,51
51460001,RIEUX,48.849,3.494667,146,real,51
51491001,ST-JEAN-TOURBE,49.1,4.7,190,real,51
51500004,ST-MARD,48.933333,4.916667,165,real,51
51507002,STE MENEHOULD M,49.101167,4.939833,210,real,51
51507007,STE MENEHOULD,49.073333,4.885,164,real,51
51518001,ST THIERRY-CIVC,49.300833,3.960667,135,real,51
51535001,SEZANNE,48.715667,3.740667,120,real,51
51539001,SOGNY,48.812167,4.803333,116,real,51
51544002,SOMMEPY,49.253167,4.553833,140,real,51
51545001,SOMMESOUS,48.734167,4.2075,167,real,51
51547001,SOMME TOURBE,49.102167,4.663167,161,real,51
51548001,SOMME-VESLE,49.007333,4.5885,162,real,51
51556001,SOUDRON,48.845167,4.198667,121,real,51
51559002,SUIPPES,49.12,4.541667,136,real,51
51566001,THIBIE,48.9315,4.213833,97,real,51
51583001,TROIS-FONTAINES,48.710167,4.9435,204,real,51
51588001,VALMY,49.085,4.775833,161,real,51
51590002,VANAULT,48.849667,4.771833,140,real,51
51595002,VATRY-AERO,48.777167,4.164667,179,real,51
51611001,VERT TOULON-CIVC,48.84,3.906,155,real,51
51612002,VERTUS,48.908333,4.000667,115,real,51
51612003,VERTUS-CIVC,48.9025,3.995333,150,real,51
52003001,AILLIANVILLE,48.3435,5.477167,422,real,52
52017003,AUBEPIERRE,47.915833,4.9345,270,real,52
52017004,ARC-EN-BARROIS,47.951667,5.014333,297,real,52
52023002,AUBERIVE_SAPC,47.783,5.0535,349,real,52
52050001,BIESLES,48.087,5.2955,387,real,52
52055001,BLECOURT,48.384167,5.067,348,real,52
52057001,BLUMERAY,48.3655,4.8565,232,real,52
52059002,BONNECOURT,47.9505,5.472167,415,real,52
52060002,BOURBONNE-LES-BAINS,47.945667,5.737333,326,real,52
52061002,BOURDONS_SAPC,48.162333,5.349667,304,real,52
52074002,BREUVANNES_SAPC,48.094333,5.602167,323,real,52
52084002,BUSSON_SAPC,48.328833,5.3605,387,real,52
52091002,CERISIERES-MAN,48.306667,5.078333,330,real,52
52091003,CERISIERES,48.308333,5.083333,332,real,52
52108002,CHARMES LES LANGRES,47.918667,5.354167,335,real,52
52114001,CHATEAUVILLAIN,48.047,4.908,227,real,52
52115001,CHATENAY-MACHER,47.865,5.376667,346,real,52
52121002,CHAUMONT-MAN,48.126667,5.156667,254,real,52
52121007,CHAUMONT,48.105,5.153333,317,real,52
52123003,CHEVILLON_SAPC,48.522833,5.113833,170,real,52
52128001,CIREY-LES-M,48.198333,5.285,345,real,52
52131002,CIRFONTAINES_SAPC,48.456167,5.394667,379,real,52
52145001,COUBLANC,47.692,5.460167,258,real,52
52177001,DOULAINCOURT,48.320833,5.209833,220,real,52
52180002,DROYES,48.5065,4.700167,124,real,52
52197003,FAYL-BILLOT_SAPC,47.784333,5.615333,347,real,52
52201001,FLAMMERECOURT,48.361833,5.0435,260,real,52
52248002,IS-EN-BASSIGNY,48.022167,5.455333,403,real,52
52253001,JUZENNECOURT,48.181,4.979667,303,real,52
52269001,LANGRES,47.843667,5.3375,466,real,52
52274001,LATRECEY-ORMOY,47.983333,4.861667,263,real,52
52282001,LEFFONDS,47.969,5.163833,380,real,52
52287001,LEVECOURT,48.147333,5.538833,325,real,52
52294001,LOUVEMONT - MAN,48.560333,4.909833,146,real,52
52332001,VAL-DE-MEUSE,48.0215,5.586833,380,real,52
52348003,NEUILLY-L'EVEQUE_SAPC,47.918,5.435833,353,real,52
52373001,OZIERES,48.175,5.471667,411,real,52
52405001,PRAUTHOY,47.6815,5.295167,293,real,52
52428001,ROCHEFORT,48.220667,5.204667,353,real,52
52443001,SAILLY,48.433833,5.272833,270,real,52
52447001,ST-CIERGUES,47.882333,5.2615,359,real,52
52448001,ST-DIZIER,48.631333,4.903667,139,real,52
52450001,ST-LOUP-SUR-A,47.895,5.093333,317,real,52
52450002,SAINT-LOUP-SUR-AUJON_SAPC,47.895,5.092167,310,real,52
52456001,SAINT-URBAIN,48.398,5.1785,220,real,52
52469001,CHAUMONT-SEMOUTIERS,48.092167,5.046,294,real,52
52504001,TERRE-NATALE,47.900167,5.620667,370,real,52
52529001,VILLEGUSIEN,47.7385,5.313833,296,real,52
52535001,VILLIERS-LE-SEC,48.106333,5.064833,287,real,52
52538001,VILLIERS-SUR-S,47.982,5.1935,335,real,52
52542002,VIVEY,47.733333,5.066667,410,real,52
58006001,ANLEZY,46.9575,3.507833,220,real,58
58010003,ARLEUF,47.045333,4.022,635,real,58
58015001,ASNAN,47.308333,3.551667,270,real,58
58019001,AVREE,46.820667,3.905,302,real,58
58023001,BAZOCHES_SAPC,47.359667,3.790333,351,real,58
58024002,BAZOLLES,47.176667,3.618667,262,real,58
58036002,BOUHY,47.474167,3.161667,288,real,58
58037004,BRASSY,47.264333,3.938667,414,real,58
58059001,LA CHARITE GER,47.1995,3.0325,184,real,58
58059004,LA CHARITE RES,47.172,3.021333,200,real,58
58060001,CHARRIN,46.803667,3.570167,236,real,58
58061001,CHASNAY,47.233833,3.168167,213,real,58
58062001,CHATEAU CHINON,47.070333,3.934333,598,real,58
58064001,CHATEAUNEUF VAL,47.2865,3.225333,278,real,58
58065001,CHATILLON EN BA,47.043333,3.648667,250,real,58
58079001,CLAMECY,47.456667,3.526667,159,real,58
58079004,CLAMECY,47.441,3.509,215,real,58
58080001,LA COLLANCELLE,47.171333,3.641333,282,real,58
58086001,COURS LES COSNE,47.444167,2.948833,196,real,58
58086002,COSNE SUR LOIRE,47.3695,2.960833,186,real,58
58089001,COULOUTRE,47.4155,3.221333,216,real,58
58092001,CRUX LA VILLE,47.132833,3.515,283,real,58
58095001,DECIZE,46.818667,3.455,192,real,58
58099001,DOMMARTIN,47.059167,3.861667,305,real,58
58102001,DONZY,47.401667,3.08,209,real,58
58104001,DORNES,46.720333,3.3555,220,real,58
58106002,DUN-LES-PLACES,47.312,4.047167,600,real,58
58106005,DUN_SAPC,47.312833,4.046833,598,real,58
58108001,EMPURY,47.3495,3.824167,345,real,58
58109001,ENTRAINS SUR NO,47.486667,3.258333,245,real,58
58118001,FOURS,46.816667,3.72,232,real,58
58119001,FRASNAY REUGNY,46.993,3.502667,266,real,58
58120004,GACOGNE,47.21,3.895,337,real,58
58125002,GIEN SUR CURE,47.137167,4.101333,638,real,58
58128002,GLUX EN GLENNE,46.943667,4.033,578,real,58
58131001,GUERIGNY,47.093333,3.1905,205,real,58
58132001,GUIPY_SAPC,47.212833,3.570333,274,real,58
58140001,LAROCHEMILLAY,46.906,4.01,375,real,58
58145002,LORMES_SAPC,47.267167,3.858333,485,real,58
58146001,LUCENAY LES AIX,46.7005,3.5145,218,real,58
58148001,LUTHENAY UXELOU,46.8465,3.288833,230,real,58
58149001,LUZY,46.807,3.9625,300,real,58
58160001,NEVERS-MARZY,46.999333,3.1145,175,real,58
58160002,MARZY,47.005,3.083333,185,real,58
58177001,MONTIGNY EN MORVAN_SAPC,47.161333,3.855667,285,real,58
58185001,MOUX-EN-MORVAN,47.172,4.057,588,real,58
58199001,ONLAY,46.981333,3.910833,375,real,58
58204001,OUROUER,47.058667,3.305,262,real,58
58210002,PLANCHEZ,47.134167,4.018833,618,real,58
58215005,POUILLY SUR LOI,47.297,2.962167,225,real,58
58218006,PREMERY,47.170333,3.3695,260,real,58
58223001,ROUY,47.008333,3.558333,258,real,58
58227001,ST AMAND EN PUI,47.533333,3.066667,210,real,58
58230001,ST AUBIN DES CH,47.393667,3.7475,280,real,58
58238002,ST ELOI,46.976667,3.221667,200,real,58
58264001,ST PIERRE LE MOUTIER,46.798833,3.113667,218,real,58
58281001,SUILLY LA TOUR,47.333667,3.071167,182,real,58
58286001,TANNAY,47.375,3.591333,235,real,58
58303001,VARENNES-VILLE,47.008167,3.152,208,real,58
58303002,VARENNES-BOULOR,47.068667,3.139167,208,real,58
58304001,VARZY,47.329167,3.381333,252,real,58
58304005,VARZY_SAPC,47.368333,3.386,226,real,58
66003001,AMELIE-LES-BAINS,42.4775,2.665167,252,real,66
66004401,Les Angles,42.571667,2.051667,2108,real,66
66005001,ANGOUSTRINE,42.486667,1.953333,1381,real,66
66008003,ARGELES-SUR-MER,42.54,3.006667,28,real,66
66013001,BAILLESTAVY,42.563333,2.528333,585,real,66
66016001,BANYULS-SUR-MER,42.473333,3.116667,80,real,66
66024001,LE BOULOU,42.5285,2.8435,77,real,66
66026001,BROUILLA,42.566667,2.906667,50,real,66
66029001,CAIXAS CLIM,42.596667,2.66,450,real,66
66029003,CAIXAS,42.587333,2.679833,347,real,66
66037001,CANET-EN-ROUSSILLON,42.686833,2.983667,16,real,66
66038003,CANOHES,42.653333,2.831667,73,real,66
66048001,CERBERE,42.441667,3.165,26,real,66
66049001,CERET,42.496333,2.7475,146,real,66
66052001,CODALET,42.596667,2.418333,450,real,66
66060004,CORSAVY,42.486667,2.556667,975,real,66
66062001,DORRES,42.4845,1.939333,1446,real,66
66067402,PUIGMAL-NIVOSE,42.384667,2.095333,2471,real,66
66074002,EUS,42.630167,2.446333,321,real,66
66078001,FILLOLS,42.561667,2.41,725,real,66
66082001,FORMIGUERES,42.613333,2.105,1530,real,66
66082004,FORMIGUERES,42.616,2.111333,1495,real,66
66082400,FORMIGUERE,42.623667,2.068333,1753,real,66
66088003,ILLE-SUR-TET,42.659833,2.614167,158,real,66
66095001,LATOUR DE CAROL,42.462333,1.888167,1246,real,66
66096001,LATOUR-DE-FRANCE,42.765,2.651667,110,real,66
66117001,MONT LOUIS,42.51,2.121667,1600,real,66
66119002,MOSSET,42.675667,2.320333,750,real,66
66124004,FONT-ROMEU,42.521667,2.036667,1964,real,66
66124402,FONT-ROMEU-GALINERA,42.535167,2.021,2144,real,66
66125003,OLETTE,42.553333,2.266667,615,real,66
66127001,OPOUL PERILLOS,42.866667,2.876667,180,real,66
66136001,PERPIGNAN,42.737167,2.872833,42,real,66
66136002,PERPIGNAN-JOFFRE,42.708333,2.893333,29,real,66
66137003,LE PERTHUS,42.473333,2.8595,295,real,66
66147001,PORTE PUYMORENS,42.546667,1.826667,1620,real,66
66147402,PORTE-PUYMORENS,42.551667,1.789,2087,real,66
66148001,CAP BEAR,42.516167,3.133667,72,real,66
66150004,PRATS-DE-MOLLO,42.405,2.485,725,real,66
66150012,COL D ARES,42.368333,2.458333,1525,real,66
66154401,Puyvalador_Rieutord,42.655167,2.058333,2131,real,66
66155001,PY,42.496667,2.351667,1040,real,66
66157001,RAILLEU,42.586667,2.181,1366,real,66
66179001,ST LAURENT CERD,42.386667,2.611667,640,real,66
66179003,ST-LAURENT-DE-CERDANS,42.388333,2.618333,725,real,66
66181001,STE LEOCADIE,42.445,2.013333,1320,real,66
66183001,ST MARSAL,42.539167,2.622,690,real,66
66187001,ST P-FENOU-GEN,42.81,2.506667,262,real,66
66187004,ST PAUL FENOUIL,42.808333,2.558333,205,real,66
66187006,ST PAUL DE FENOUILLET,42.8205,2.485333,300,real,66
66188401,ST PIERRE DELS FORCATS,42.4625,2.117,2350,real,66
66192003,LA CASSAGNE- S H E M,42.509167,2.148667,1151,real,66
66194002,SERRALONGUE,42.399833,2.557667,700,real,66
66198001,SOURNIA,42.726667,2.446667,515,real,66
66202001,TARGASONNE,42.504,1.973333,1600,real,66
66204002,TAURINYA,42.580333,2.4105,770,real,66
66204400,CANIGOU-NIVOSE,42.536667,2.465,2160,real,66
66206001,LE TECH-EDF,42.408667,2.541,532,real,66
66206002,LE TECH-LA LLAU,42.44,2.515,900,real,66
66206004,LE TECH LA LLAU_SAPC,42.439833,2.5125,927,real,66
66210003,THUIR,42.648333,2.731667,110,real,66
66212001,TORREILLES,42.755,2.978333,7,real,66
66214001,TRESSERRE,42.545,2.826667,148,real,66
66220002,VALCEBOLLERE,42.388167,2.035333,1519,real,66
66222003,VERNET LES BAINS,42.548333,2.386667,630,real,66
66230001,VINCA,42.6555,2.547833,251,real,66
66233001,VIVES,42.5365,2.760833,261,real,66
67005001,ALTECKENDORF,48.789667,7.603333,174,real,67
67021001,BARR,48.408333,7.460167,193,real,67
67027001,BELMONT,48.406333,7.267167,1065,real,67
67029001,BERG,48.884333,7.151667,350,real,67
67067001,BRUMATH,48.715667,7.707333,142,real,67
67077003,COSSWILLER,48.610667,7.345167,445,real,67
67083002,DAMBACH_SAPC,48.999333,7.661667,234,real,67
67090001,DIEBOLSHEIM,48.2865,7.666167,162,real,67
67115001,EBERSHEIM,48.3085,7.4945,164,real,67
67122001,WANGENBOURG_SAPC,48.6425,7.307,460,real,67
67124001,STRASBOURG-ENTZHEIM,48.5495,7.640333,150,real,67
67126002,ERCKARTSWILLER_SAPC,48.873,7.364167,245,real,67
67130003,ERSTEIN SA,48.418333,7.648333,155,real,67
67151001,GAMBSHEIM,48.7,7.883333,129,real,67
67165003,GRANDFONTAINE - MF,48.516667,7.116667,515,real,67
67165006,GRANDFONTAINE_SAPC,48.507667,7.148,736,real,67
67180001,HAGUENAU,48.836333,7.801167,153,real,67
67180008,HAGUENAU - VILLE,48.816667,7.783333,148,real,67
67186001,HEGENEY SA,48.888667,7.735833,185,real,67
67186002,HEGENEY,48.8915,7.7395,179,real,67
67210001,LE HOHWALD,48.414667,7.349667,785,real,67
67210002,LE HOHWALD_SAPC,48.4015,7.33,591,real,67
67210006,LE HOHWALD,48.406667,7.3265,595,real,67
67261003,LAUTERBOURG SA,48.97,8.166667,110,real,67
67263001,LEMBACH,48.9935,7.7435,325,real,67
67273001,LOHR,48.858833,7.2445,322,real,67
67296001,MITTELHAUSBERGEN,48.612,7.692333,153,real,67
67309001,MUNDOLSHEIM,48.639667,7.706167,143,real,67
67362001,HT-KOENIGSBOURG,48.2495,7.345333,760,real,67
67368002,OTTROTT,48.462833,7.415833,332,real,67
67379001,PREUSCHDORF,48.943167,7.803833,167,real,67
67414001,ROTHAU SA,48.446667,7.2,380,real,67
67420001,RUSS,48.497167,7.2555,284,real,67
67421001,SAALES,48.361667,7.103333,630,real,67
67421004,SAALES,48.349333,7.106167,558,real,67
67435001,SARREWERDEN,48.904333,7.064167,235,real,67
67437003,SAVERNE,48.746167,7.356667,206,real,67
67443001,SCHEIBENHARD,48.964167,8.1455,144,real,67
67462004,SELESTAT SA,48.272833,7.478333,173,real,67
67463002,SELTZ,48.8935,8.102833,120,real,67
67476001,STATTMATTEN,48.794167,8.001333,120,real,67
67476002,STATTMATTEN SA,48.795167,8.002333,121,real,67
67482001,STRASBOURG - BOTANIQUE,48.581833,7.768833,139,real,67
67498001,UHRWILLER_SAPC,48.883667,7.5815,217,real,67
67507003,VILLE,48.343,7.306167,264,real,67
67513001,BELMONT,48.411667,7.276667,1069,real,67
67516001,WALTENHEIM-SUR-ZORN,48.7435,7.61,252,real,67
67519001,LA WANTZENAU SA,48.634167,7.832333,135,real,67
67519002,LA WANTZENAU,48.655833,7.838167,131,real,67
67535001,WIMMENAU,48.915,7.410333,220,real,67
67544003,WISSEMBOURG - PV,49.036167,7.935333,182,real,67
67555001,ZEHNACKER,48.6705,7.447167,255,real,67
68004001,ALTKIRCH,47.618333,7.253333,350,real,68
68014001,AUBURE,48.197333,7.222333,796,real,68
68015001,BALDERSHEIM,47.796667,7.46,230,real,68
68028001,BERGHEIM-INRAE,48.216333,7.345833,309,real,68
68040001,BITS.-LES-THANN,47.824333,7.069,395,real,68
68051001,BREITENBACH,48.021333,7.103667,466,real,68
68062001,CARSPACH,47.632,7.212833,332,real,68
68066001,COLMAR-INRAE,48.063333,7.33,202,real,68
68066004,COLMAR - HOUSS.,48.1095,7.3605,192,real,68
68090001,FERRETTE,47.498333,7.308833,480,real,68
68095001,FORTSCHWIHR,48.088,7.451667,185,real,68
68102001,GEISHOUSE_SAPC,47.875333,7.056833,618,real,68
68105001,GILDWILLER,47.6905,7.132167,295,real,68
68112005,GUEBWILLER,47.903667,7.225833,273,real,68
68137001,HINDLINGEN,47.574,7.135333,350,real,68
68157001,JEBSHEIM,48.124,7.474833,177,real,68
68162001,KAYSERSBERG,48.139333,7.266667,246,real,68
68165001,KIFFIS,47.438,7.355667,576,real,68
68167001,KIRCHBERG,47.798,6.952167,460,real,68
68171001,KRUTH MF,47.939833,6.959167,500,real,68
68171002,KRUTH_SAPC,47.944167,6.955,512,real,68
68179001,LAUW,47.758333,7.019167,380,real,68
68188002,LINTHAL_SAPC,47.9415,7.114,488,real,68
68190001,LUCELLE_SAPC,47.438333,7.268167,690,real,68
68192001,LUTRAN,47.6225,7.056167,348,real,68
68205001,COLMAR-MEYENHEIM,47.928667,7.407667,207,real,68
68210002,MITTLACH - ERBE,48.005333,7.029333,552,real,68
68221001,MUESPACH,47.547667,7.382333,400,real,68
68224006,MULHOUSE,47.75,7.288833,245,real,68
68226003,MUNSTER - GENDARMERIE,48.036667,7.141667,400,real,68
68226005,MUNSTER_SAPC,48.047167,7.117333,420,real,68
68231001,NEUF-BRISACH,48.026167,7.574667,195,real,68
68241001,OBERENTZEN,47.943667,7.378667,203,real,68
68247001,ODEREN - VALLEE,47.909667,6.970333,457,real,68
68247003,MARKSTEIN CRETE,47.923,7.031667,1184,real,68
68249002,ORBEY LAC BLANC_SAPC,48.135833,7.103833,1080,real,68
68249003,ALLAGOUTTES,48.138667,7.186833,550,real,68
68249005,SURCENORD,48.145,7.1285,960,real,68
68269004,RIBEAU. - VERRE,48.223333,7.269167,538,real,68
68269005,RIBEAU. - ACACI,48.1895,7.336167,220,real,68
68287001,ROUFFACH - CHS,47.954,7.291667,208,real,68
68287003,ROUFFACH - SA,47.965333,7.286833,285,real,68
68294001,PETIT ROMBACH,48.278333,7.179833,545,real,68
68294002,STE CROIX AUX MINES,48.266667,7.236167,326,real,68
68297001,BALE-MULHOUSE,47.614333,7.51,263,real,68
68298006,ECHERY,48.231667,7.163333,430,real,68
68301001,SCHLIERBACH,47.688667,7.429167,249,real,68
68307001,SEWEN - LAC ALFELD_SAPC,47.8155,6.873833,620,real,68
68307002,SEWEN FOERSTEL,47.809667,6.9055,512,real,68
68330001,STRUETH,47.586167,7.123333,347,real,68
68334003,THANN,47.803667,7.107167,338,real,68
68338001,TROIS-EPIS_SAPC,48.1015,7.231,656,real,68
68359002,WATTWILLER,47.837167,7.175167,371,real,68
68370001,WILDENSTEIN,47.976167,6.960833,560,real,68
69007001,AMPUIS,45.490667,4.811167,157,real,69
69008001,ANCY_SAPC,45.843333,4.508167,626,real,69
69023002,BLACE,46.0345,4.642,340,real,69
69026001,LE BREUIL,45.896,4.583,275,real,69
69028001,BRINDAS,45.713333,4.693167,317,real,69
69029001,LYON-BRON,45.721333,4.949167,202,real,69
69029002,BRON - VINATIER,45.761667,4.895,199,real,69
69032001,BULLY,45.845,4.584167,280,real,69
69034003,CALUIRE,45.811667,4.876667,269,real,69
69034004,CALUIRE4,45.792833,4.8435,248,real,69
69036003,CERCIE EN BEAUJOLAIS,46.134,4.672167,262,real,69
69058002,CHIROUBLES,46.182667,4.667167,415,real,69
69064002,CONDRIEU,45.470167,4.776167,155,real,69
69066003,COURS LA VILLE_SAPC,46.098667,4.325833,578,real,69
69081001,ECULLY,45.785,4.788333,255,real,69
69097002,LES HAIES,45.504,4.745167,385,real,69
69104001,JULLIE,46.245,4.6695,410,real,69
69107001,LAMURE-SUR-AZER,46.050333,4.485167,456,real,69
69108001,LANCIE,46.1725,4.717,180,real,69
69114001,LIERGUES_SAPC,45.9765,4.650333,290,real,69
69116001,LIMONEST,45.834167,4.765167,365,real,69
69122001,LUCENAY,45.905667,4.694833,255,real,69
69123002,LYON TETE D'OR,45.772833,4.855167,170,real,69
69123003,LYON ST-RAMBERT,45.790167,4.810333,200,real,69
69123023,LYON-FOURVIERE,45.759667,4.818167,310,real,69
69135001,MONSOLS,46.219167,4.523167,525,real,69
69139002,MONTROTTIER,45.785833,4.469667,630,real,69
69141001,MORNANT,45.6145,4.673833,343,real,69
69156001,POMMIERS,45.957167,4.694167,315,real,69
69158001,PONT TRAMBOUZE,46.060667,4.313,425,real,69
69161001,AZOLETTE,46.194333,4.432833,669,real,69
69174002,LES SAUVAGES,45.935333,4.384167,831,real,69
69176001,SOUCIEU,45.665667,4.692333,367,real,69
69180002,STANDRE,45.6305,4.599,860,real,69
69181001,ST-APPOLINAIRE,45.977,4.423833,700,real,69
69192001,ST-CYR-CHATOUX,46.027167,4.556833,695,real,69
69195002,ST-DIDIER-RIVER,45.595167,4.5935,600,real,69
69196001,ST-DIDIER-BEAUJ,46.164167,4.566333,345,real,69
69203001,ST-GENIS-L'ARGENTIERE,45.7,4.4845,512,real,69
69204002,ST-GENIS-LAVAL,45.694667,4.782333,290,real,69
69204003,ST-GENIS - COIN,45.666833,4.789833,275,real,69
69206001,ST-GEORGES-REN,46.058167,4.710833,190,real,69
69208001,ST-GERMAIN-L AR,45.869333,4.6045,370,real,69
69211001,ST-JEAN-D ARDIE,46.117667,4.702667,240,real,69
69218001,SAINT LAGER,46.134167,4.672333,262,real,69
69234001,POPEY,45.856667,4.523833,364,real,69
69238001,ST-SYMPHORIEN-C,45.638667,4.471333,610,real,69
69239001,ST-VERAND,45.925,4.501667,430,real,69
69239002,SAINT-VERAND,45.916333,4.521167,390,real,69
69244001,TASSIN-MI-LUNE,45.760333,4.7625,230,real,69
69248003,MARDORE,46.0755,4.368333,700,real,69
69249001,THURINS,45.688333,4.62,450,real,69
69251001,TRADES,46.279,4.566667,445,real,69
69253001,TUPIN-ET-SEMONS,45.471667,4.776667,150,real,69
69257001,VAUX-EN-BEAUJOL,46.057,4.586833,423,real,69
69258001,VAUXRENARD,46.217,4.6285,740,real,69
69264001,VILLEFRANCHE,45.987167,4.737667,174,real,69
69266001,VILLEURBANNE,45.758333,4.89,177,real,69
69266002,VILLEURB CUSSET,45.766667,4.906667,180,real,69
69272001,COMMUNAY,45.606,4.8395,230,real,69
69273001,CORBAS,45.663333,4.902667,195,real,69
69286003,RILLIEUX,45.8355,4.907833,328,real,69
69299001,LYON-ST EXUPERY,45.7265,5.077833,235,real,69
71004001,ALLERIOT,46.812667,4.943333,200,real,71
71005001,ALUZE,46.853333,4.703333,385,real,71
71009002,ANOST,47.07,4.089667,439,real,71
71010001,ANTULLY,46.885,4.42,530,real,71
71012002,ARTAIX,46.241667,4.011667,264,real,71
71014004,AUTUN,46.972,4.263167,303,real,71
71016001,AZE,46.44,4.765833,259,real,71
71022001,BAUDEMONT_SAPC,46.2765,4.296667,337,real,71
71022003,BAUDEMONT_SAPC,46.285667,4.281833,396,real,71
71025001,BEAUBERY,46.406,4.400167,465,real,71
71029001,BELLEVESVRE,46.841333,5.366,190,real,71
71040001,BLANZY,46.719,4.349833,305,real,71
71047001,BOURBON LANCY,46.643667,3.7805,260,real,71
71047004,BOURBON-LANCY,46.6105,3.7385,210,real,71
71052003,BOYER,46.576333,4.873833,223,real,71
71054001,BRAGNY SUR SAONE,46.926167,5.022333,183,real,71
71056003,BRANGES_SAPC,46.645833,5.206667,197,real,71
71060001,BRIANT,46.305167,4.166833,390,real,71
71070001,BUXY,46.709833,4.697667,230,real,71
71076001,CHALON-VNF,46.786333,4.867667,178,real,71
71081001,CHALON-CHAMPFO,46.827,4.825667,187,real,71
71105001,MACON,46.2945,4.794333,219,real,71
71106001,CHAROLLES,46.429,4.2695,309,real,71
71108001,CHASSELAS,46.273333,4.72,330,real,71
71112001,CHATEAU,46.408,4.594667,330,real,71
71120001,CHAUFFAILLES,46.203,4.348833,440,real,71
71130001,CHISSEY,46.526667,4.75,245,real,71
71130002,CHISSEY-LES-MACON,46.520833,4.723,254,real,71
71137001,CLUNY,46.435667,4.647833,258,real,71
71152001,CRESSY,46.702167,3.835833,287,real,71
71153002,CREUSOT(LE),46.79,4.443333,320,real,71
71165001,CUSSY-EN-MORVAN,47.086167,4.173667,510,real,71
71176002,DIGOIN,46.472333,3.987333,248,real,71
71190001,EPINAC,46.997667,4.496333,325,real,71
71202001,FONTAINES,46.860333,4.772667,200,real,71
71210001,FUISSE,46.2815,4.741333,260,real,71
71219001,GIGNY,46.661667,4.943333,183,real,71
71230002,GUEUGNON,46.598167,4.020833,305,real,71
71231003,GUICHE(LA),46.550167,4.455167,428,real,71
71240001,JALOGNY_SAPC,46.402167,4.651,246,real,71
71256001,LESSARD,46.755,5.083333,210,real,71
71263004,LOUHANS,46.625,5.228333,179,real,71
71266001,LUCENAY,47.088333,4.24,360,real,71
71267001,LUGNY,46.477333,4.823333,247,real,71
71267002,LUGNY SA,46.477833,4.81,280,real,71
71275002,MARCIGNY,46.276667,4.033333,250,real,71
71289001,MATOUR_SAPC,46.304,4.480333,415,real,71
71291001,MELAY,46.215,4.002333,315,real,71
71294001,MERCUREY,46.840167,4.737,258,real,71
71310002,MONTCHANIN,46.727667,4.461833,300,real,71
71318001,MONTPONT,46.57,5.163,205,real,71
71320001,MT-ST-VINCENT,46.627667,4.477,601,real,71
71340002,PALINGES,46.554667,4.228,281,real,71
71342001,PARAY,46.446333,4.094333,267,real,71
71346001,PERRECY LES FORGES,46.617833,4.213833,290,real,71
71349001,LA PETITE VERRIERE,47.047,4.160167,360,real,71
71351001,PIERRE DE BRESSE,46.884667,5.270167,208,real,71
71371001,LA ROCHE VINEUSE,46.345167,4.726333,265,real,71
71372001,ROMANECHE,46.182833,4.739833,190,real,71
71373001,ROMENAY,46.493833,5.061167,210,real,71
71376001,ROUSSILLON EN MORVAN,47.015667,4.142667,520,real,71
71378001,RULLY,46.8665,4.744167,240,real,71
71379001,SAGY,46.605333,5.305167,203,real,71
71394001,ST-BONNET-DE-J,46.486,4.440333,402,real,71
71405001,ST-DIDIER-EN-B,46.851667,5.091667,190,real,71
71417004,ST-GENGOUX-LE-NATIONAL,46.614333,4.652667,260,real,71
71419002,ST-GERMAIN-DU-B,46.754333,5.239333,200,real,71
71420001,ST-GERMAIN-DU-P,46.700667,4.985,190,real,71
71445001,ST-MARCEL,46.782333,4.905667,187,real,71
71460001,ST-MAURICE-DE-S,46.426,4.7835,245,real,71
71464001,ST-MAURICE-LES-COUCHES_SAPC,46.881833,4.594833,300,real,71
71472005,ST-PRIX,46.958333,4.0735,470,real,71
71482001,ST-SYMPHORIEN DE MARMAGNE,46.852167,4.336167,349,real,71
71486002,ST-VALLIER,46.65,4.35,280,real,71
71491001,ST YAN,46.408333,4.0165,242,real,71
71495001,SALORNAY SUR GUYE,46.523333,4.596667,215,real,71
71506001,SAVIGNY-EN-REV,46.633167,5.377,199,real,71
71512001,SENNECEY,46.620167,4.879167,190,real,71
71523001,SIMARD,46.714167,5.181167,211,real,71
71539001,TINTRY,46.930333,4.4675,400,real,71
71540002,TORCY,46.756667,4.4465,317,real,71
71541001,TORPES_SAPC,46.837667,5.337333,190,real,71
71542001,TOULON/ARROUX,46.690833,4.138833,269,real,71
71542004,TOULON SUR  ARROUX SA,46.688667,4.156,306,real,71
71543001,TOURNUS,46.566167,4.9005,200,real,71
71551001,UCHON,46.819833,4.276167,558,real,71
71551002,UCHON,46.813333,4.253333,654,real,71
71558001,VARENNES-ST-SA,46.529333,5.255333,207,real,71
71566001,VERDUN,46.8955,5.0225,176,real,71
71589001,VITRY/LOIRE,46.691667,3.721667,258,real,71
73004001,AILLON LE JEUNE,45.617833,6.080167,900,real,73
73004400,Les Aillons (Margeriaz),45.642167,6.061167,1400,real,73
73008003,AIX LES BAINS,45.700333,5.889667,234,real,73
73011002,ALBERTVILLE,45.662167,6.371833,331,real,73
73011004,ALBERTVILLE JO,45.662333,6.371833,332,real,73
73013001,ALBIEZ,45.2155,6.341,1540,real,73
73013002,ALBIEZ-MONTROND,45.210667,6.336333,1633,real,73
73015001,MERIBEL BURGIN,45.3875,6.5895,2040,real,73
73015400,Meribel Mottaret,45.371667,6.583333,1700,real,73
73017001,APREMONT,45.515667,5.951833,370,real,73
73021001,ARVILLARD,45.44,6.117333,500,real,73
73023001,AUSSOIS-CLIM,45.229833,6.744333,1467,real,73
73023401,Aussois,45.247667,6.732667,2166,real,73
73024400,Valmorel,45.461833,6.445167,1333,real,73
73026001,AVRIEUX,45.214,6.716833,1104,real,73
73034002,BEAUFORT-SUR-DORON,45.691,6.568667,1036,real,73
73034400,Areches,45.671333,6.5405,1209,real,73
73040005,BESSANS-CLIM,45.322833,7.002333,1731,real,73
73040400,Bessans,45.320667,6.995333,1713,real,73
73040402,BONNEVAL-NIVOSE,45.351667,7.051167,2741,real,73
73047401,Bonneval sur Arc,45.373667,7.057167,1830,real,73
73051001,MONT DU CHAT,45.6605,5.8215,1496,real,73
73052001,BOURGET-EN-HUILE,45.489667,6.205667,890,real,73
73052002,BOURGET EN HUILE_SAPC,45.486667,6.207667,820,real,73
73053001,BOURGNEUF,45.5545,6.2335,300,real,73
73054001,BOURG ST MAURICE,45.612667,6.763333,865,real,73
73054401,Les Arcs,45.573333,6.826667,2040,real,73
73055001,BOZEL,45.44,6.6495,865,real,73
73057001,BRIDES LES BAIN,45.453667,6.571667,600,real,73
73064001,CHALLES LES EAUX,45.565167,5.970333,298,real,73
73064002,CHALLES TEPPES,45.548167,5.973333,307,real,73
73065005,CHAMBERY,45.5805,5.902833,256,real,73
73071403,BELLECOTE-NIVOSE,45.489,6.771167,2992,real,73
73082001,LA CHAVANNE,45.494667,6.074667,318,real,73
73085001,CHINDRIEUX,45.832167,5.847333,340,real,73
73093001,GRANDE PAREI-NIVOSE,45.614667,6.6475,2260,real,73
73098002,LA FECLAZ,45.643,5.985667,1350,real,73
73098003,FECLAZ_SAPC,45.647167,5.983667,1328,real,73
73106001,ECOLE,45.650333,6.17,732,real,73
73107001,ENTREMONT LE VIEUX_SAPC,45.444167,5.9005,1059,real,73
73116001,LA TOUSSUIRE,45.255667,6.252,1766,real,73
73123402,LA GIETTAZ,45.878333,6.525833,1217,real,73
73124001,GILLY SUR ISERE,45.653167,6.3435,330,real,73
73132001,HAUTELUCE,45.772333,6.638833,1215,real,73
73132003,COL-DES-SAISIES,45.755,6.535333,1614,real,73
73132400,Les Saisies,45.758333,6.528833,1636,real,73
73132403,Col des Saisies,45.76,6.53,1633,real,73
73138002,JARRIER,45.279333,6.3085,1200,real,73
73139001,JARSY_SAPC,45.658833,6.176833,832,real,73
73139401,ALLANT-NIVOSE,45.663833,6.211833,1684,real,73
73143003,LANSLEBOURG MT,45.2235,6.944667,2000,real,73
73144001,MONT CENIS,45.269333,6.899167,2032,real,73
73144404,Val Cenis (La Berche),45.274167,6.922333,2101,real,73
73146001,LESCHERAINES,45.715167,6.108333,591,real,73
73150004,LA PLAGNE_SAPC,45.500333,6.675167,2120,real,73
73150400,La Plagne,45.506833,6.678667,1980,real,73
73157002,MODANE,45.193667,6.674167,1228,real,73
73157004,FREJUS,45.193667,6.674167,1228,real,73
73157400,Val Frejus,45.155833,6.664833,2208,real,73
73158001,MOGNARD,45.762,5.957167,340,real,73
73167001,MONTGELLAFREY,45.393,6.321,1057,real,73
73171002,MONTMELIAN,45.493833,6.049167,264,real,73
73173400,Les Karellis,45.227667,6.404,1603,real,73
73175001,MONTSAPEY,45.5225,6.336833,960,real,73
73176400,La Rosiere,45.629833,6.848333,1867,real,73
73179001,LA MOTTE SERVOL,45.595,5.860333,310,real,73
73179002,LA MOTTE SERVOLEX NOIRAY,45.609333,5.853667,350,real,73
73181001,MOUTIERS,45.484667,6.534167,480,real,73
73187002,LA LECHERE,45.556667,6.511667,1340,real,73
73187006,LA LECHERE_SAPC,45.549167,6.501,1195,real,73
73191001,NOVALAISE,45.597333,5.776833,460,real,73
73191005,LAC AIGUEBELETTE,45.564833,5.795833,375,real,73
73191800,NOVALAISE_DOUBLE,45.595667,5.773,435,real,73
73194401,Orelle,45.247833,6.571,2356,real,73
73197001,PEISEY NANCROIX,45.544,6.7565,1350,real,73
73206001,PRALOGNAN LA VANOISE,45.386,6.716667,1420,real,73
73206400,Pralognan,45.381667,6.72,1416,real,73
73215001,LA ROCHETTE,45.452167,6.112333,350,real,73
73220001,ST-ALBAN DES HURTIERES,45.477167,6.271333,610,real,73
73227400,Courchevel,45.413333,6.632167,1780,real,73
73228002,ST-CASSIN,45.532667,5.8865,550,real,73
73229001,ST-CHRISTOPHE LA-GROTTE,45.452833,5.777333,420,real,73
73230002,ST COLOMBAN DES VILLARDS,45.293,6.231167,1085,real,73
73232001,STE-FOY-TARENTAISE,45.601833,6.886833,1230,real,73
73232400,STE FOY STATION,45.577833,6.895167,1524,real,73
73235400,ST FRANCOIS LONG,45.417833,6.3635,1595,real,73
73242001,ST JEAN D ARVES,45.190167,6.284333,1285,real,73
73242003,ST JEAN D'ARVES_SAPC,45.206833,6.278833,1573,real,73
73244001,ST-JEAN DE BELLEVILLE,45.427667,6.482833,1150,real,73
73248002,ST-JEAN DE MAURIENNE,45.282167,6.354333,550,real,73
73248003,ST JEAN DE MAUR,45.266667,6.333333,610,real,73
73255003,STE MARIE CUINES,45.3435,6.307167,460,real,73
73257001,ST-MARTIN DE BELLEVILLE,45.368167,6.5105,1443,real,73
73257003,LA MASSE,45.297333,6.508333,2800,real,73
73257004,ST-MARTIN BELLEVILLE,45.361667,6.521667,1560,real,73
73257005,VAL THORENS_SAPC,45.294,6.581,2277,real,73
73257400,Les Menuires,45.323333,6.541667,1800,real,73
73257405,VAL THORENS,45.2945,6.5825,2283,real,73
73258001,ST-MARTIN DE LA PORTE,45.238833,6.446167,763,real,73
73261001,ST-MICHEL DE MAURIENNE LE THYL,45.223667,6.490833,1345,real,73
73261003,ST MICHEL MAUR_SAPC,45.218167,6.4645,698,real,73
73276001,ST-PIERRE DE SOUCY,45.482333,6.0935,351,real,73
73280001,ST-SORLIN D'ARVES,45.224,6.216333,1694,real,73
73280402,ST SORLIN D'ARVES,45.217167,6.2025,2090,real,73
73290002,TERMIGNON-CLIM,45.274833,6.8145,1280,real,73
73296002,TIGNES-BREVIERES,45.507833,6.920667,1570,real,73
73296005,TIGNES_SAPC,45.467,6.907167,2084,real,73
73296400,Tignes,45.468333,6.908333,2080,real,73
73296406,LE CHEVRIL-NIVOSE,45.499667,6.955333,2559,real,73
73297003,ALBERTVILLE,45.627833,6.327667,314,real,73
73301001,TREVIGNIN,45.706833,5.977333,730,real,73
73303005,UGINE,45.759167,6.421,539,real,73
73304004,VAL D ISERE,45.444833,6.978167,1850,real,73
73304005,VAL D'ISERE JOS,45.444833,6.978167,1850,real,73
73304402,Le Molard,45.441833,7.016167,2310,real,73
73304404,Val d Isere Joseray,45.445,6.978167,1854,real,73
73306005,VALLOIRE FOREST,45.173,6.433167,1460,real,73
73306401,LES ROCHILLES-NIVOSE,45.085,6.469,2444,real,73
73306403,Valloire,45.160833,6.4635,2295,real,73
73307400,Valmeinier,45.176,6.493833,1788,real,73
73312001,VERRENS ARVEY,45.658667,6.3165,530,real,73
73318400,Le Corbier,45.243333,6.266667,1585,real,73
73322001,LA NORMA_SAPC,45.190667,6.7035,1985,real,73
73322401,La Norma,45.1885,6.698833,1958,real,73
73326001,VIMINES,45.5455,5.851667,515,real,73
73329001,CHAMBERY-AIX,45.641333,5.878,235,real,73
73330001,YENNE,45.701,5.755,230,real,73
74001001,ABONDANCE,46.2845,6.734167,947,real,74
74003001,ALEX,45.885,6.233833,680,real,74
74014002,LES CARROZ,46.024667,6.644,1151,real,74
74014004,FLAINE_SAPC,46.002833,6.697167,1611,real,74
74014400,Flaine,46.0035,6.697333,1620,real,74
74014402,LES CARROZ KEDEUSAZ,46.027667,6.665667,1760,real,74
74014404,LES CARROZ VILLAGE,46.024667,6.643833,1152,real,74
74016001,ARCHAMPS,46.131833,6.140167,560,real,74
74024001,AYZE,46.0795,6.431333,449,real,74
74031001,BEAUMONT,46.093,6.105667,690,real,74
74033400,Bernex,46.341167,6.708167,1535,real,74
74034001,LE BIOT,46.278167,6.621,690,real,74
74035001,BLOYE,45.821667,5.944667,375,real,74
74037002,BOEGE,46.213333,6.395,750,real,74
74042003,BONNEVILLE,46.0685,6.399833,453,real,74
74043001,BONS CHABLAIS,46.263333,6.338333,575,real,74
74045001,LE BOUCHET_SAPC,45.7995,6.367667,925,real,74
74051002,CERCIER,46.031833,6.043167,492,real,74
74056001,CHAMONIX,45.9295,6.8775,1042,real,74
74056004,ARGENTIERE,45.983333,6.928333,1275,real,74
74056005,LE TOUR,46.003833,6.9485,1500,real,74
74056006,AIGUILLE DU MIDI,45.8785,6.8875,3845,real,74
74056400,CHAMONIX-OBS,45.923333,6.867333,1043,real,74
74056402,LE TOUR NIVO,46.002333,6.947333,1478,real,74
74056405,AIGUILLES ROUGES-NIVOSE,45.986333,6.896833,2365,real,74
74056416,Lognan,45.968333,6.942833,1970,real,74
74056417,LA FLEGERE,45.9625,6.889167,1850,real,74
74056418,LE TOUR BALME,46.020833,6.970833,2196,real,74
74056421,COUVERCLE-NIVOSE,45.909667,6.958833,2758,real,74
74060001,CHAPELLE SAINT-MAURICE_SAPC,45.782333,6.152167,970,real,74
74063002,CHATEL,46.255833,6.818833,1155,real,74
74063404,CHATEL NIVO,46.218333,6.792333,1635,real,74
74063405,CHATEL NIVO,46.225167,6.797167,1700,real,74
74080002,CLUSAZ (LA),45.887167,6.427167,1180,real,74
74080403,LA CLUSAZ,45.8935,6.445667,1597,real,74
74080404,LA CLUSAZ,45.900833,6.4855,1965,real,74
74081002,CLUSES,46.080667,6.559833,475,real,74
74081003,CLUSES,46.048333,6.588333,485,real,74
74083002,COMBLOUX,45.892833,6.626667,1183,real,74
74085001,CONTAMINES MJ,45.822333,6.728833,1180,real,74
74085406,LES CONTAMINES MONTJOIE,45.791833,6.699833,1780,real,74
74087001,CONTAMINE-SUR- ARVE,46.128667,6.34,452,real,74
74093001,CRAN-GEVRIER,45.910833,6.107833,426,real,74
74105002,DOUVAINE SA,46.302333,6.318333,470,real,74
74110001,ENTREMONT,45.953333,6.393,830,real,74
74116002,ETEAUX,46.063,6.275667,805,real,74
74117001,ETERCY,45.89,6.01,512,real,74
74119002,EVIAN,46.3965,6.5665,395,real,74
74119003,EVIAN SA,46.382333,6.5825,725,real,74
74123002,FAVERGES,45.753333,6.281833,507,real,74
74133001,GAILLARD,46.176,6.210333,399,real,74
74134002,GETS (LES),46.158667,6.670333,1172,real,74
74134400,Les Gets,46.165833,6.659167,1530,real,74
74135001,GIEZ,45.762667,6.255333,478,real,74
74136003,GRAND BORNAND,45.970333,6.444667,1300,real,74
74136005,LE GRAND-BORNAND,45.973333,6.471833,1430,real,74
74136400,Le Grand Bornand,45.972,6.454167,1270,real,74
74136403,GRAND-BORNAND,45.958167,6.456167,1447,real,74
74137001,GROISY_SAPC,46.012667,6.1745,670,real,74
74140002,HABERE-POCHE,46.251667,6.473333,960,real,74
74143003,HOUCHES (LES),45.8925,6.800667,1004,real,74
74173001,MEGEVE,45.855333,6.608167,1080,real,74
74173400,MEGEVE AUXI,45.855667,6.608,1080,real,74
74182001,MEYTHET,45.928167,6.094,455,real,74
74187001,MONTMIN,45.803833,6.265,1050,real,74
74189001,MONT-SAXONNEX,46.048167,6.483333,990,real,74
74191003,LE PLENEY,46.168333,6.692833,1515,real,74
74191406,Avoriaz,46.186167,6.779833,1768,real,74
74193001,LA CROISETTE,46.119167,6.171167,1175,real,74
74203001,NOVEL,46.368833,6.79,949,real,74
74208005,CHEDDE,45.923333,6.73,610,real,74
74211002,PERS JUSSY,46.098,6.2605,747,real,74
74221001,REPOSOIR (LE),46.011333,6.5355,975,real,74
74236002,MONT ARBOIS,45.855333,6.669,1833,real,74
74241001,ST JEOIRE,46.136667,6.477,535,real,74
74252001,ST SIGISMOND,46.076333,6.612167,1020,real,74
74256001,SALLANCHES,45.931667,6.640333,542,real,74
74258002,SAMOENS,46.086667,6.726667,785,real,74
74263001,SCIEZ,46.331667,6.378333,413,real,74
74266001,SERVOZ,45.931167,6.767333,815,real,74
74270400,Seythenex,45.713,6.276333,1159,real,74
74280001,THONES,45.877833,6.323,630,real,74
74281001,THONON-INRAE,46.366667,6.455,376,real,74
74285001,USINENS,46.008333,5.841667,417,real,74
74285002,USINENS SA,46.013,5.8445,452,real,74
74286001,VACHERESSE,46.316333,6.669833,790,real,74
74286400,VACHERESSE AUXI,46.315333,6.673333,790,real,74
74289001,VALLIERES,45.901667,5.921667,309,real,74
74290002,VALLORCINE_PLAN-DROIT,46.0205,6.919167,1326,real,74
74290003,VALLORCINE,46.0205,6.919167,1326,real,74
74292001,VAULX,45.918,5.994667,520,real,74
77006001,ARBONNE,48.416667,2.565,73,real,77
77019002,BALLOY,48.398333,3.146667,55,real,77
77033001,BEZALLES,48.678333,3.241833,163,real,77
77042001,BOISSY-LE-CHAT.,48.825,3.14,133,real,77
77053002,BRI-COMTE-ROB.,48.68,2.646667,75,real,77
77054001,LA BROSSE-MX,48.351667,3.023333,77,real,77
77058001,BUSSY,48.843167,2.699,125,real,77
77066002,CERNEUX,48.726833,3.359167,183,real,77
77069001,CHAILLY,48.461667,2.607333,79,real,77
77084001,CHANGIS,48.964667,3.011833,70,real,77
77100003,LE CHATELET,48.490833,2.801833,85,real,77
77103001,CHATILLON-LA-B.,48.542333,2.810333,93,real,77
77108001,CHELLES,48.890333,2.607,60,real,77
77113002,CHEVRU,48.726833,3.203333,158,real,77
77114002,CHEVRY-COSSIGNY,48.707833,2.678833,103,real,77
77120001,COCHEREL,49.02,3.106667,185,real,77
77126001,CONGIS,49.021667,2.965,66,real,77
77135001,COURPALAY,48.647833,2.966167,95,real,77
77142001,CRECY-LA-CHAP.,48.856833,2.910833,52,real,77
77148002,CROUY-SUR-OURCQ,49.092833,3.070333,62,real,77
77153003,DAMMARTIN - DDE,49.062167,2.704167,111,real,77
77159001,DONNEMARIE,48.474667,3.1265,97,real,77
77164001,ECHOUBOULAINS,48.464833,2.945333,118,real,77
77164002,ECHOUBOULAINS-LES GARGOTS,48.463833,2.9455,117,real,77
77175001,EVRY-GREGY,48.653333,2.63,90,real,77
77177001,FAVIERES,48.791667,2.765,115,real,77
77181003,FERRIERES - ONF,48.823333,2.693333,101,real,77
77182003,FERTE-GAUCHER,48.779333,3.307667,113,real,77
77186002,FONTAINEBLEAU_SAPC,48.406,2.6785,84,real,77
77192002,FONTENAY-TRES,48.691667,2.823833,105,real,77
77211001,NANGIS,48.595333,3.007667,128,real,77
77221001,GUERMANTES,48.853333,2.698333,98,real,77
77239001,JOUY-LE-CHATEL,48.6895,3.125167,135,real,77
77284003,MEAUX,48.954,2.925667,67,real,77
77288005,MELUN - VILLE,48.531667,2.646667,44,real,77
77292001,MESSY,48.968167,2.698333,75,real,77
77297001,MONDREVILLE,48.14,2.61,96,real,77
77306001,MELUN,48.610333,2.6795,91,real,77
77320002,MOUROUX_SAPC,48.847,3.0585,148,real,77
77333003,NEMOURS,48.27,2.715,73,real,77
77339001,NOISY-SUR-ECOLE,48.356667,2.496667,102,real,77
77359002,PERTHES,48.471667,2.551667,81,real,77
77379002,PROVINS,48.551667,3.285,96,real,77
77379004,PROVINS-DE GAULLE,48.559167,3.286,97,real,77
77390001,ROISSY-EN-BRIE,48.795,2.636667,103,real,77
77403001,ST-BRICE,48.555,3.36,100,real,77
77405001,ST-CYR/MORIN-BG,48.908333,3.183333,63,real,77
77406002,ST-DENIS-LES-R.,48.841667,3.208333,147,real,77
77418001,ST-LOUP-DE-NAUD,48.536167,3.210167,99,real,77
77419001,ST-MAMMES,48.386667,2.811667,55,real,77
77431001,ST-PIERRE-LES-N,48.263333,2.646667,117,real,77
77447002,SEINE-PORT,48.547667,2.576333,76,real,77
77449001,SERRIS,48.845,2.788333,130,real,77
77459002,SOURDUN,48.538333,3.355,148,real,77
77463001,THOMERY,48.41,2.781667,57,real,77
77464002,THORIGNY,48.891167,2.713833,112,real,77
77468001,TORCY,48.8635,2.651,43,real,77
77478001,USSY-SUR-MARNE,48.973667,3.093667,69,real,77
77485001,LE VAUDOUE,48.3595,2.516333,68,real,77
77489001,VAUX-SUR-LUNAIN,48.221833,2.934667,136,real,77
77515001,VILLEROY,48.991667,2.773333,109,real,77
